{"type":"FeatureCollection","features":[{"type":"Feature","geometry":{"type":"Point","coordinates":[-79.260939,43.714379]},"properties":{"stop_id":"662","stop_name":"Danforth Rd at Kennedy Rd","stop_lat":43.714379,"stop_lon":-79.260939,"routes":[{"route_id":"300","route_short_name":"300","route_long_name":"Bloor-Danforth"}],"frequency":{"early_morning":2,"am_peak":0,"midday":0,"pm_peak":0,"evening":0,"night":1.4}}},{"type":"Feature","geometry":{"type":"Point","coordinates":[-79.399659,43.674448]},"properties":{"stop_id":"929","stop_name":"Davenport Rd at Bedford Rd","stop_lat":43.674448,"stop_lon":-79.399659,"routes":[{"route_id":"19","route_short_name":"19","route_long_name":"Bay"}],"frequency":{"early_morning":1,"am_peak":2.5,"midday":2.3,"pm_peak":2.8,"evening":2.3,"night":1.1}}},{"type":"Feature","geometry":{"type":"Point","coordinates":[-79.401938,43.675511]},"properties":{"stop_id":"940","stop_name":"Davenport Rd at Dupont St","stop_lat":43.675511,"stop_lon":-79.401938,"routes":[{"route_id":"19","route_short_name":"19","route_long_name":"Bay"}],"frequency":{"early_morning":3,"am_peak":5.5,"midday":4.7,"pm_peak":5.5,"evening":4.7,"night":2}}},{"type":"Feature","geometry":{"type":"Point","coordinates":[-79.378112,43.702088]},"properties":{"stop_id":"1871","stop_name":"Davisville Ave at Cleveland St","stop_lat":43.702088,"stop_lon":-79.378112,"routes":[{"route_id":"11","route_short_name":"11","route_long_name":"Bayview"},{"route_id":"28","route_short_name":"28","route_long_name":"Bayview South"}],"frequency":{"early_morning":4.5,"am_peak":8.5,"midday":8,"pm_peak":8.5,"evening":6.7,"night":3.6}}},{"type":"Feature","geometry":{"type":"Point","coordinates":[-79.594843,43.701362]},"properties":{"stop_id":"11700","stop_name":"Disco Rd at Attwell Dr","stop_lat":43.701362,"stop_lon":-79.594843,"routes":[{"route_id":"112","route_short_name":"112","route_long_name":"West Mall"}],"frequency":{"early_morning":2.5,"am_peak":2.5,"midday":2.5,"pm_peak":2.8,"evening":3.7,"night":1.7}}},{"type":"Feature","geometry":{"type":"Point","coordinates":[-79.595806,43.701043]},"properties":{"stop_id":"3478","stop_name":"Disco Rd at Attwell Dr","stop_lat":43.701043,"stop_lon":-79.595806,"routes":[{"route_id":"45","route_short_name":"45","route_long_name":"Kipling"}],"frequency":{"early_morning":2,"am_peak":3,"midday":3.7,"pm_peak":3,"evening":0,"night":0}}},{"type":"Feature","geometry":{"type":"Point","coordinates":[-79.600769,43.69981]},"properties":{"stop_id":"3479","stop_name":"Disco Rd at Carlingview Dr East Side","stop_lat":43.69981,"stop_lon":-79.600769,"routes":[{"route_id":"45","route_short_name":"45","route_long_name":"Kipling"}],"frequency":{"early_morning":2,"am_peak":3,"midday":3.7,"pm_peak":3,"evening":0,"night":0}}},{"type":"Feature","geometry":{"type":"Point","coordinates":[-79.601176,43.699929]},"properties":{"stop_id":"3480","stop_name":"Disco Rd at Carlingview Dr","stop_lat":43.699929,"stop_lon":-79.601176,"routes":[{"route_id":"45","route_short_name":"45","route_long_name":"Kipling"}],"frequency":{"early_morning":2,"am_peak":3.5,"midday":3.7,"pm_peak":2.8,"evening":0,"night":0}}},{"type":"Feature","geometry":{"type":"Point","coordinates":[-79.339121,43.720674]},"properties":{"stop_id":"14258","stop_name":"Don Mills Rd at Eglinton Ave East","stop_lat":43.720674,"stop_lon":-79.339121,"routes":[{"route_id":"325","route_short_name":"325","route_long_name":"Don Mills"},{"route_id":"354","route_short_name":"354","route_long_name":"Lawrence East"}],"frequency":{"early_morning":3,"am_peak":0,"midday":0,"pm_peak":0,"evening":0,"night":2}}},{"type":"Feature","geometry":{"type":"Point","coordinates":[-79.343442,43.736625]},"properties":{"stop_id":"14255","stop_name":"Don Mills Rd at Lawrence Ave East South Side","stop_lat":43.736625,"stop_lon":-79.343442,"routes":[{"route_id":"191","route_short_name":"191","route_long_name":"Underhill"},{"route_id":"354","route_short_name":"354","route_long_name":"Lawrence East"},{"route_id":"54","route_short_name":"54","route_long_name":"Lawrence East"},{"route_id":"954","route_short_name":"954","route_long_name":"Lawrence East Express"}],"frequency":{"early_morning":11,"am_peak":21,"midday":12.3,"pm_peak":17.5,"evening":12.7,"night":6}}},{"type":"Feature","geometry":{"type":"Point","coordinates":[-79.348163,43.777291]},"properties":{"stop_id":"1950","stop_name":"Don Mills Rd at Leith Hill Rd","stop_lat":43.777291,"stop_lon":-79.348163,"routes":[{"route_id":"325","route_short_name":"325","route_long_name":"Don Mills"}],"frequency":{"early_morning":0.5,"am_peak":0,"midday":0,"pm_peak":0,"evening":0,"night":0.7}}},{"type":"Feature","geometry":{"type":"Point","coordinates":[-79.360513,43.81104]},"properties":{"stop_id":"1974","stop_name":"Don Mills Rd at Steeles Ave East","stop_lat":43.81104,"stop_lon":-79.360513,"routes":[{"route_id":"25","route_short_name":"25","route_long_name":"Don Mills"},{"route_id":"325","route_short_name":"325","route_long_name":"Don Mills"},{"route_id":"925","route_short_name":"925","route_long_name":"Don Mills Express"}],"frequency":{"early_morning":5.5,"am_peak":13.5,"midday":11.5,"pm_peak":14.3,"evening":13.3,"night":5.4}}},{"type":"Feature","geometry":{"type":"Point","coordinates":[-79.352783,43.787246]},"properties":{"stop_id":"1975","stop_name":"Don Mills Rd at Van Horne Ave","stop_lat":43.787246,"stop_lon":-79.352783,"routes":[{"route_id":"25","route_short_name":"25","route_long_name":"Don Mills"},{"route_id":"325","route_short_name":"325","route_long_name":"Don Mills"},{"route_id":"925","route_short_name":"925","route_long_name":"Don Mills Express"}],"frequency":{"early_morning":6.5,"am_peak":13.5,"midday":11.3,"pm_peak":14.8,"evening":13,"night":5.1}}},{"type":"Feature","geometry":{"type":"Point","coordinates":[-79.339326,43.722851]},"properties":{"stop_id":"1977","stop_name":"Don Mills Rd at Wynford Dr","stop_lat":43.722851,"stop_lon":-79.339326,"routes":[{"route_id":"25","route_short_name":"25","route_long_name":"Don Mills"},{"route_id":"325","route_short_name":"325","route_long_name":"Don Mills"},{"route_id":"354","route_short_name":"354","route_long_name":"Lawrence East"},{"route_id":"403","route_short_name":"403","route_long_name":"South Don Mills"}],"frequency":{"early_morning":8.5,"am_peak":8.5,"midday":7.5,"pm_peak":9.5,"evening":8,"night":5.1}}},{"type":"Feature","geometry":{"type":"Point","coordinates":[-79.303796,43.691659]},"properties":{"stop_id":"5006","stop_name":"Doncaster Ave at Main St West Side","stop_lat":43.691659,"stop_lon":-79.303796,"routes":[{"route_id":"62","route_short_name":"62","route_long_name":"Mortimer"}],"frequency":{"early_morning":2.5,"am_peak":3.5,"midday":3,"pm_peak":3.5,"evening":3.3,"night":1.1}}},{"type":"Feature","geometry":{"type":"Point","coordinates":[-79.303525,43.691607]},"properties":{"stop_id":"5007","stop_name":"Doncaster Ave at Main St","stop_lat":43.691607,"stop_lon":-79.303525,"routes":[{"route_id":"62","route_short_name":"62","route_long_name":"Mortimer"}],"frequency":{"early_morning":2.5,"am_peak":3.5,"midday":3,"pm_peak":3.5,"evening":3.3,"night":1.4}}},{"type":"Feature","geometry":{"type":"Point","coordinates":[-79.303103,43.691816]},"properties":{"stop_id":"5008","stop_name":"Doncaster Ave at Main St","stop_lat":43.691816,"stop_lon":-79.303103,"routes":[{"route_id":"87","route_short_name":"87","route_long_name":"Cosburn"}],"frequency":{"early_morning":4,"am_peak":6,"midday":6,"pm_peak":6,"evening":6,"night":3.6}}},{"type":"Feature","geometry":{"type":"Point","coordinates":[-79.431676,43.78388]},"properties":{"stop_id":"9288","stop_name":"Drewry Ave at Gardenia Crt","stop_lat":43.78388,"stop_lon":-79.431676,"routes":[{"route_id":"125","route_short_name":"125","route_long_name":"Drewry"}],"frequency":{"early_morning":3,"am_peak":7.5,"midday":4.5,"pm_peak":6,"evening":4,"night":1.1}}},{"type":"Feature","geometry":{"type":"Point","coordinates":[-79.433593,43.783607]},"properties":{"stop_id":"9275","stop_name":"Drewry Ave at Grantbrook St","stop_lat":43.783607,"stop_lon":-79.433593,"routes":[{"route_id":"125","route_short_name":"125","route_long_name":"Drewry"}],"frequency":{"early_morning":2,"am_peak":8,"midday":4.3,"pm_peak":5.8,"evening":4.3,"night":1.3}}},{"type":"Feature","geometry":{"type":"Point","coordinates":[-79.457356,43.726531]},"properties":{"stop_id":"979","stop_name":"Dufferin St at Yorkdale Rd","stop_lat":43.726531,"stop_lon":-79.457356,"routes":[{"route_id":"18","route_short_name":"18","route_long_name":"Caledonia"},{"route_id":"29","route_short_name":"29","route_long_name":"Dufferin"},{"route_id":"329","route_short_name":"329","route_long_name":"Dufferin"}],"frequency":{"early_morning":7,"am_peak":9,"midday":8,"pm_peak":9.5,"evening":9,"night":4.7}}},{"type":"Feature","geometry":{"type":"Point","coordinates":[-79.425646,43.634831]},"properties":{"stop_id":"9991","stop_name":"Dufferin St at Springhurst Ave","stop_lat":43.634831,"stop_lon":-79.425646,"routes":[{"route_id":"329","route_short_name":"329","route_long_name":"Dufferin"}],"frequency":{"early_morning":0,"am_peak":0,"midday":0,"pm_peak":0,"evening":0,"night":0.1}}},{"type":"Feature","geometry":{"type":"Point","coordinates":[-79.456993,43.725083]},"properties":{"stop_id":"985","stop_name":"Dufferin St at Jane Osler Blvd - Yorkdale Shopping Centre","stop_lat":43.725083,"stop_lon":-79.456993,"routes":[{"route_id":"18","route_short_name":"18","route_long_name":"Caledonia"},{"route_id":"29","route_short_name":"29","route_long_name":"Dufferin"},{"route_id":"329","route_short_name":"329","route_long_name":"Dufferin"},{"route_id":"929","route_short_name":"929","route_long_name":"Dufferin Express"}],"frequency":{"early_morning":10,"am_peak":19,"midday":18,"pm_peak":19.3,"evening":20,"night":6.9}}},{"type":"Feature","geometry":{"type":"Point","coordinates":[-79.434031,43.655795]},"properties":{"stop_id":"11630","stop_name":"Dufferin Mall","stop_lat":43.655795,"stop_lon":-79.434031,"routes":[],"frequency":{"early_morning":0,"am_peak":0,"midday":0,"pm_peak":0,"evening":0,"night":0}}},{"type":"Feature","geometry":{"type":"Point","coordinates":[-79.452572,43.656442]},"properties":{"stop_id":"9856","stop_name":"Dundas St West at Bloor St West","stop_lat":43.656442,"stop_lon":-79.452572,"routes":[{"route_id":"304","route_short_name":"304","route_long_name":"King"},{"route_id":"305","route_short_name":"305","route_long_name":"Dundas"},{"route_id":"504","route_short_name":"504","route_long_name":"King"}],"frequency":{"early_morning":4.5,"am_peak":0,"midday":0,"pm_peak":0,"evening":0,"night":4.6}}},{"type":"Feature","geometry":{"type":"Point","coordinates":[-79.490433,43.665583]},"properties":{"stop_id":"9942","stop_name":"Dundas St West at Jane St East Side","stop_lat":43.665583,"stop_lon":-79.490433,"routes":[{"route_id":"340","route_short_name":"340","route_long_name":"Junction"}],"frequency":{"early_morning":0.5,"am_peak":0,"midday":0,"pm_peak":0,"evening":0,"night":1.1}}},{"type":"Feature","geometry":{"type":"Point","coordinates":[-79.492146,43.66578]},"properties":{"stop_id":"9943","stop_name":"Dundas St West at Jane St West Side","stop_lat":43.66578,"stop_lon":-79.492146,"routes":[{"route_id":"40","route_short_name":"40","route_long_name":"Junction-Dundas West"},{"route_id":"55","route_short_name":"55","route_long_name":"Warren Park"}],"frequency":{"early_morning":4,"am_peak":5.5,"midday":4.7,"pm_peak":5.5,"evening":4.7,"night":2}}},{"type":"Feature","geometry":{"type":"Point","coordinates":[-79.482921,43.66565]},"properties":{"stop_id":"4455","stop_name":"Dundas St West at Runnymede Rd West Side","stop_lat":43.66565,"stop_lon":-79.482921,"routes":[{"route_id":"340","route_short_name":"340","route_long_name":"Junction"},{"route_id":"40","route_short_name":"40","route_long_name":"Junction-Dundas West"}],"frequency":{"early_morning":4.5,"am_peak":5.5,"midday":5.3,"pm_peak":5.3,"evening":4,"night":3}}},{"type":"Feature","geometry":{"type":"Point","coordinates":[-79.453253,43.656768]},"properties":{"stop_id":"13702","stop_name":"Dundas St West at Dundas West Outer Platform","stop_lat":43.656768,"stop_lon":-79.453253,"routes":[{"route_id":"505","route_short_name":"505","route_long_name":"Dundas"}],"frequency":{"early_morning":1,"am_peak":9,"midday":10,"pm_peak":10,"evening":7.3,"night":3.4}}},{"type":"Feature","geometry":{"type":"Point","coordinates":[-79.400108,43.70623]},"properties":{"stop_id":"13898","stop_name":"Duplex Ave at Eglinton Ave West","stop_lat":43.70623,"stop_lon":-79.400108,"routes":[{"route_id":"103","route_short_name":"103","route_long_name":"Mount Pleasant North"},{"route_id":"334","route_short_name":"334","route_long_name":"Eglinton"},{"route_id":"34","route_short_name":"34","route_long_name":"Eglinton"},{"route_id":"354","route_short_name":"354","route_long_name":"Lawrence East"},{"route_id":"74","route_short_name":"74","route_long_name":"Mount Pleasant"}],"frequency":{"early_morning":7.5,"am_peak":8.5,"midday":8,"pm_peak":8.8,"evening":9,"night":5.4}}},{"type":"Feature","geometry":{"type":"Point","coordinates":[-79.347132,43.705908]},"properties":{"stop_id":"11651","stop_name":"East York Town Centre","stop_lat":43.705908,"stop_lon":-79.347132,"routes":[{"route_id":"403","route_short_name":"403","route_long_name":"South Don Mills"}],"frequency":{"early_morning":0,"am_peak":0,"midday":1,"pm_peak":1,"evening":0,"night":0}}},{"type":"Feature","geometry":{"type":"Point","coordinates":[-79.312738,43.666788]},"properties":{"stop_id":"11181","stop_name":"Eastern Ave at Queen St East South Side","stop_lat":43.666788,"stop_lon":-79.312738,"routes":[{"route_id":"22","route_short_name":"22","route_long_name":"Coxwell"},{"route_id":"31","route_short_name":"31","route_long_name":"Greenwood"},{"route_id":"322","route_short_name":"322","route_long_name":"Coxwell"}],"frequency":{"early_morning":13,"am_peak":15.5,"midday":16,"pm_peak":16,"evening":16,"night":9.7}}},{"type":"Feature","geometry":{"type":"Point","coordinates":[-79.312475,43.667037]},"properties":{"stop_id":"13486","stop_name":"Eastern Ave at Queen St East","stop_lat":43.667037,"stop_lon":-79.312475,"routes":[{"route_id":"31","route_short_name":"31","route_long_name":"Greenwood"}],"frequency":{"early_morning":3,"am_peak":4,"midday":4,"pm_peak":4,"evening":4,"night":1.7}}},{"type":"Feature","geometry":{"type":"Point","coordinates":[-79.453027,43.657134]},"properties":{"stop_id":"9855","stop_name":"Edna Ave at Dundas St West","stop_lat":43.657134,"stop_lon":-79.453027,"routes":[{"route_id":"168","route_short_name":"168","route_long_name":"Symington"},{"route_id":"304","route_short_name":"304","route_long_name":"King"},{"route_id":"305","route_short_name":"305","route_long_name":"Dundas"},{"route_id":"340","route_short_name":"340","route_long_name":"Junction"},{"route_id":"40","route_short_name":"40","route_long_name":"Junction-Dundas West"},{"route_id":"504","route_short_name":"504","route_long_name":"King"},{"route_id":"505","route_short_name":"505","route_long_name":"Dundas"}],"frequency":{"early_morning":11.5,"am_peak":0,"midday":0,"pm_peak":0,"evening":0,"night":6.4}}},{"type":"Feature","geometry":{"type":"Point","coordinates":[-79.248799,43.736674]},"properties":{"stop_id":"2253","stop_name":"Eglinton Ave East at Brimley Rd West Side","stop_lat":43.736674,"stop_lon":-79.248799,"routes":[{"route_id":"12","route_short_name":"12","route_long_name":"Kingston Rd"},{"route_id":"300","route_short_name":"300","route_long_name":"Bloor-Danforth"}],"frequency":{"early_morning":4,"am_peak":2.5,"midday":2,"pm_peak":3,"evening":2.7,"night":3.3}}},{"type":"Feature","geometry":{"type":"Point","coordinates":[-79.267117,43.732292]},"properties":{"stop_id":"3539","stop_name":"Eglinton Ave East at Kennedy Station","stop_lat":43.732292,"stop_lon":-79.267117,"routes":[{"route_id":"334","route_short_name":"334","route_long_name":"Eglinton"},{"route_id":"34","route_short_name":"34","route_long_name":"Eglinton"},{"route_id":"343","route_short_name":"343","route_long_name":"Kennedy"},{"route_id":"43","route_short_name":"43","route_long_name":"Kennedy"}],"frequency":{"early_morning":12,"am_peak":15.5,"midday":12.2,"pm_peak":14.8,"evening":13.3,"night":8.1}}},{"type":"Feature","geometry":{"type":"Point","coordinates":[-79.219635,43.743168]},"properties":{"stop_id":"2288","stop_name":"Eglinton Ave East at Markham Rd West Side","stop_lat":43.743168,"stop_lon":-79.219635,"routes":[{"route_id":"116","route_short_name":"116","route_long_name":"Morningside"},{"route_id":"334","route_short_name":"334","route_long_name":"Eglinton"},{"route_id":"386","route_short_name":"386","route_long_name":"Scarborough"},{"route_id":"86","route_short_name":"86","route_long_name":"Scarborough"},{"route_id":"905","route_short_name":"905","route_long_name":"Eglinton East Express"},{"route_id":"986","route_short_name":"986","route_long_name":"Scarborough Express"}],"frequency":{"early_morning":18,"am_peak":31,"midday":22.5,"pm_peak":27.3,"evening":21,"night":10.1}}},{"type":"Feature","geometry":{"type":"Point","coordinates":[-79.258911,43.734493]},"properties":{"stop_id":"1036","stop_name":"Eglinton Ave East at Midland Ave West Side","stop_lat":43.734493,"stop_lon":-79.258911,"routes":[{"route_id":"20","route_short_name":"20","route_long_name":"Cliffside"},{"route_id":"57","route_short_name":"57","route_long_name":"Midland"}],"frequency":{"early_morning":7,"am_peak":8,"midday":9,"pm_peak":8.8,"evening":6.7,"night":2.7}}},{"type":"Feature","geometry":{"type":"Point","coordinates":[-79.407957,43.704641]},"properties":{"stop_id":"11488","stop_name":"Eglinton Ave West at Avenue Rd East Side","stop_lat":43.704641,"stop_lon":-79.407957,"routes":[{"route_id":"13","route_short_name":"13","route_long_name":"Avenue Rd"},{"route_id":"334","route_short_name":"334","route_long_name":"Eglinton"},{"route_id":"34","route_short_name":"34","route_long_name":"Eglinton"},{"route_id":"61","route_short_name":"61","route_long_name":"Avenue Rd North"},{"route_id":"805","route_short_name":"805","route_long_name":"Line 5 Shuttle"}],"frequency":{"early_morning":7.5,"am_peak":9,"midday":8.7,"pm_peak":9.3,"evening":9,"night":9.1}}},{"type":"Feature","geometry":{"type":"Point","coordinates":[-79.436704,43.698565]},"properties":{"stop_id":"9896","stop_name":"Eglinton Ave West at Everden Rd - Cedarvale Station","stop_lat":43.698565,"stop_lon":-79.436704,"routes":[{"route_id":"334","route_short_name":"334","route_long_name":"Eglinton"},{"route_id":"363","route_short_name":"363","route_long_name":"Ossington"}],"frequency":{"early_morning":3,"am_peak":0,"midday":0,"pm_peak":0,"evening":0,"night":2.4}}},{"type":"Feature","geometry":{"type":"Point","coordinates":[-79.435955,43.698853]},"properties":{"stop_id":"9895","stop_name":"Eglinton Ave West at Everden Rd - Cedarvale Station","stop_lat":43.698853,"stop_lon":-79.435955,"routes":[{"route_id":"164","route_short_name":"164","route_long_name":"Castlefield"},{"route_id":"334","route_short_name":"334","route_long_name":"Eglinton"},{"route_id":"363","route_short_name":"363","route_long_name":"Ossington"},{"route_id":"63","route_short_name":"63","route_long_name":"Ossington"},{"route_id":"90","route_short_name":"90","route_long_name":"Vaughan"}],"frequency":{"early_morning":5.5,"am_peak":0,"midday":0,"pm_peak":0,"evening":0,"night":2.3}}},{"type":"Feature","geometry":{"type":"Point","coordinates":[-79.432546,43.699564]},"properties":{"stop_id":"2354","stop_name":"Eglinton Ave West at Glenarden Rd","stop_lat":43.699564,"stop_lon":-79.432546,"routes":[{"route_id":"334","route_short_name":"334","route_long_name":"Eglinton"}],"frequency":{"early_morning":4.5,"am_peak":0,"midday":0,"pm_peak":0,"evening":0,"night":1.7}}},{"type":"Feature","geometry":{"type":"Point","coordinates":[-79.498076,43.68452]},"properties":{"stop_id":"2366","stop_name":"Eglinton Ave West at Jane St East Side","stop_lat":43.68452,"stop_lon":-79.498076,"routes":[{"route_id":"27","route_short_name":"27","route_long_name":"Jane South"},{"route_id":"32","route_short_name":"32","route_long_name":"Eglinton West"},{"route_id":"334","route_short_name":"334","route_long_name":"Eglinton"},{"route_id":"35","route_short_name":"35","route_long_name":"Jane"},{"route_id":"73","route_short_name":"73","route_long_name":"Royal York"}],"frequency":{"early_morning":19.5,"am_peak":24,"midday":22.5,"pm_peak":22.5,"evening":21.3,"night":11.7}}},{"type":"Feature","geometry":{"type":"Point","coordinates":[-79.439204,43.698127]},"properties":{"stop_id":"2380","stop_name":"Eglinton Ave West at Marlee Ave","stop_lat":43.698127,"stop_lon":-79.439204,"routes":[{"route_id":"334","route_short_name":"334","route_long_name":"Eglinton"},{"route_id":"34","route_short_name":"34","route_long_name":"Eglinton"},{"route_id":"363","route_short_name":"363","route_long_name":"Ossington"},{"route_id":"63","route_short_name":"63","route_long_name":"Ossington"},{"route_id":"90","route_short_name":"90","route_long_name":"Vaughan"}],"frequency":{"early_morning":14.5,"am_peak":16,"midday":16.7,"pm_peak":15.3,"evening":14,"night":9.4}}},{"type":"Feature","geometry":{"type":"Point","coordinates":[-79.438962,43.698177]},"properties":{"stop_id":"13440","stop_name":"Eglinton Ave West at Marlee Ave","stop_lat":43.698177,"stop_lon":-79.438962,"routes":[{"route_id":"109","route_short_name":"109","route_long_name":"Ranee"},{"route_id":"164","route_short_name":"164","route_long_name":"Castlefield"}],"frequency":{"early_morning":3.5,"am_peak":5.5,"midday":5,"pm_peak":5.5,"evening":4.3,"night":2.4}}},{"type":"Feature","geometry":{"type":"Point","coordinates":[-79.442946,43.697197]},"properties":{"stop_id":"2388","stop_name":"Eglinton Ave West at Oakwood Ave","stop_lat":43.697197,"stop_lon":-79.442946,"routes":[{"route_id":"334","route_short_name":"334","route_long_name":"Eglinton"},{"route_id":"34","route_short_name":"34","route_long_name":"Eglinton"},{"route_id":"805","route_short_name":"805","route_long_name":"Line 5 Shuttle"}],"frequency":{"early_morning":4.5,"am_peak":3,"midday":3.2,"pm_peak":3.3,"evening":3.3,"night":6.1}}},{"type":"Feature","geometry":{"type":"Point","coordinates":[-79.489925,43.68671]},"properties":{"stop_id":"9383","stop_name":"Eglinton Ave West at Weston Rd","stop_lat":43.68671,"stop_lon":-79.489925,"routes":[{"route_id":"27","route_short_name":"27","route_long_name":"Jane South"},{"route_id":"32","route_short_name":"32","route_long_name":"Eglinton West"},{"route_id":"334","route_short_name":"334","route_long_name":"Eglinton"},{"route_id":"35","route_short_name":"35","route_long_name":"Jane"},{"route_id":"73","route_short_name":"73","route_long_name":"Royal York"}],"frequency":{"early_morning":18.5,"am_peak":24,"midday":22.7,"pm_peak":22.8,"evening":21.3,"night":11.4}}},{"type":"Feature","geometry":{"type":"Point","coordinates":[-79.489369,43.687153]},"properties":{"stop_id":"2419","stop_name":"Eglinton Ave West at Weston Rd","stop_lat":43.687153,"stop_lon":-79.489369,"routes":[{"route_id":"171","route_short_name":"171","route_long_name":"Mount Dennis"},{"route_id":"27","route_short_name":"27","route_long_name":"Jane South"},{"route_id":"32","route_short_name":"32","route_long_name":"Eglinton West"},{"route_id":"334","route_short_name":"334","route_long_name":"Eglinton"},{"route_id":"35","route_short_name":"35","route_long_name":"Jane"},{"route_id":"71","route_short_name":"71","route_long_name":"Runnymede"},{"route_id":"73","route_short_name":"73","route_long_name":"Royal York"},{"route_id":"89","route_short_name":"89","route_long_name":"Weston"},{"route_id":"989","route_short_name":"989","route_long_name":"Weston Express"}],"frequency":{"early_morning":34,"am_peak":41,"midday":35.5,"pm_peak":39.5,"evening":34,"night":18.6}}},{"type":"Feature","geometry":{"type":"Point","coordinates":[-79.398957,43.706695]},"properties":{"stop_id":"9898","stop_name":"Eglinton Ave West at Yonge St West Side","stop_lat":43.706695,"stop_lon":-79.398957,"routes":[{"route_id":"103","route_short_name":"103","route_long_name":"Mount Pleasant North"},{"route_id":"334","route_short_name":"334","route_long_name":"Eglinton"},{"route_id":"34","route_short_name":"34","route_long_name":"Eglinton"},{"route_id":"354","route_short_name":"354","route_long_name":"Lawrence East"},{"route_id":"74","route_short_name":"74","route_long_name":"Mount Pleasant"},{"route_id":"805","route_short_name":"805","route_long_name":"Line 5 Shuttle"}],"frequency":{"early_morning":12,"am_peak":8,"midday":8.2,"pm_peak":8.5,"evening":9,"night":9.3}}},{"type":"Feature","geometry":{"type":"Point","coordinates":[-79.507259,43.602795]},"properties":{"stop_id":"11506","stop_name":"Eighth St at Birmingham St","stop_lat":43.602795,"stop_lon":-79.507259,"routes":[{"route_id":"337","route_short_name":"337","route_long_name":"Islington"}],"frequency":{"early_morning":0.5,"am_peak":0,"midday":0,"pm_peak":0,"evening":0,"night":0.7}}},{"type":"Feature","geometry":{"type":"Point","coordinates":[-79.506431,43.60078]},"properties":{"stop_id":"3543","stop_name":"Eighth St at Lake Shore Blvd West North Side","stop_lat":43.60078,"stop_lon":-79.506431,"routes":[{"route_id":"337","route_short_name":"337","route_long_name":"Islington"}],"frequency":{"early_morning":1,"am_peak":0,"midday":0,"pm_peak":0,"evening":0,"night":1.4}}},{"type":"Feature","geometry":{"type":"Point","coordinates":[-79.185159,43.787289]},"properties":{"stop_id":"10904","stop_name":"Ellesmere Rd at Mirrow Crt","stop_lat":43.787289,"stop_lon":-79.185159,"routes":[{"route_id":"905","route_short_name":"905","route_long_name":"Eglinton East Express"}],"frequency":{"early_morning":0.5,"am_peak":5,"midday":7.3,"pm_peak":5,"evening":5,"night":0.4}}},{"type":"Feature","geometry":{"type":"Point","coordinates":[-79.273102,43.767379]},"properties":{"stop_id":"9622","stop_name":"Ellesmere Rd at East Service Rd","stop_lat":43.767379,"stop_lon":-79.273102,"routes":[{"route_id":"395","route_short_name":"395","route_long_name":"York Mills"},{"route_id":"95","route_short_name":"95","route_long_name":"York Mills"}],"frequency":{"early_morning":4,"am_peak":5.5,"midday":6.2,"pm_peak":6,"evening":9.7,"night":5.4}}},{"type":"Feature","geometry":{"type":"Point","coordinates":[-79.272603,43.767743]},"properties":{"stop_id":"9619","stop_name":"Ellesmere Rd at East Service Rd","stop_lat":43.767743,"stop_lon":-79.272603,"routes":[{"route_id":"395","route_short_name":"395","route_long_name":"York Mills"},{"route_id":"95","route_short_name":"95","route_long_name":"York Mills"}],"frequency":{"early_morning":6,"am_peak":6,"midday":6,"pm_peak":6,"evening":9,"night":4.9}}},{"type":"Feature","geometry":{"type":"Point","coordinates":[-79.25047,43.77225]},"properties":{"stop_id":"9604","stop_name":"Ellesmere Rd at McCowan Rd East Side","stop_lat":43.77225,"stop_lon":-79.25047,"routes":[{"route_id":"133","route_short_name":"133","route_long_name":"Neilson"},{"route_id":"38","route_short_name":"38","route_long_name":"Highland Creek"},{"route_id":"395","route_short_name":"395","route_long_name":"York Mills"}],"frequency":{"early_morning":8,"am_peak":9,"midday":12.3,"pm_peak":14,"evening":10.3,"night":3.4}}},{"type":"Feature","geometry":{"type":"Point","coordinates":[-79.310443,43.758847]},"properties":{"stop_id":"6368","stop_name":"Ellesmere Rd at Pharmacy Ave","stop_lat":43.758847,"stop_lon":-79.310443,"routes":[{"route_id":"395","route_short_name":"395","route_long_name":"York Mills"},{"route_id":"95","route_short_name":"95","route_long_name":"York Mills"},{"route_id":"995","route_short_name":"995","route_long_name":"York Mills Express"},{"route_id":"996","route_short_name":"996","route_long_name":"Wilson Express"}],"frequency":{"early_morning":9.5,"am_peak":17,"midday":17.7,"pm_peak":18,"evening":11.7,"night":5.3}}},{"type":"Feature","geometry":{"type":"Point","coordinates":[-79.31474,43.758123]},"properties":{"stop_id":"6372","stop_name":"Ellesmere Rd at Victoria Park Ave","stop_lat":43.758123,"stop_lon":-79.31474,"routes":[{"route_id":"395","route_short_name":"395","route_long_name":"York Mills"},{"route_id":"95","route_short_name":"95","route_long_name":"York Mills"},{"route_id":"995","route_short_name":"995","route_long_name":"York Mills Express"},{"route_id":"996","route_short_name":"996","route_long_name":"Wilson Express"}],"frequency":{"early_morning":11,"am_peak":18.5,"midday":17.3,"pm_peak":18,"evening":12.7,"night":4.9}}},{"type":"Feature","geometry":{"type":"Point","coordinates":[-79.278977,43.766111]},"properties":{"stop_id":"9621","stop_name":"Ellesmere Rd at West Service Rd East Side","stop_lat":43.766111,"stop_lon":-79.278977,"routes":[{"route_id":"395","route_short_name":"395","route_long_name":"York Mills"},{"route_id":"95","route_short_name":"95","route_long_name":"York Mills"}],"frequency":{"early_morning":4,"am_peak":6,"midday":6,"pm_peak":6,"evening":9.7,"night":5.4}}},{"type":"Feature","geometry":{"type":"Point","coordinates":[-79.278682,43.766455]},"properties":{"stop_id":"9620","stop_name":"Ellesmere Rd at West Service Rd","stop_lat":43.766455,"stop_lon":-79.278682,"routes":[{"route_id":"395","route_short_name":"395","route_long_name":"York Mills"},{"route_id":"95","route_short_name":"95","route_long_name":"York Mills"}],"frequency":{"early_morning":6.5,"am_peak":6,"midday":6,"pm_peak":6,"evening":9,"night":4.7}}},{"type":"Feature","geometry":{"type":"Point","coordinates":[-79.370453,43.648249]},"properties":{"stop_id":"6375","stop_name":"The Esplanade at Lower Jarvis St East Side","stop_lat":43.648249,"stop_lon":-79.370453,"routes":[{"route_id":"121","route_short_name":"121","route_long_name":"Esplanade-River"}],"frequency":{"early_morning":2,"am_peak":4,"midday":3,"pm_peak":3.3,"evening":2.7,"night":1.4}}},{"type":"Feature","geometry":{"type":"Point","coordinates":[-79.549007,43.610792]},"properties":{"stop_id":"2435","stop_name":"Evans Ave at Brown's Line","stop_lat":43.610792,"stop_lon":-79.549007,"routes":[{"route_id":"123","route_short_name":"123","route_long_name":"Sherway"},{"route_id":"15","route_short_name":"15","route_long_name":"Evans"},{"route_id":"315","route_short_name":"315","route_long_name":"Evans-Brown's Line"}],"frequency":{"early_morning":8.5,"am_peak":11.5,"midday":7.5,"pm_peak":11.8,"evening":10,"night":6.7}}},{"type":"Feature","geometry":{"type":"Point","coordinates":[-79.58687,43.691554]},"properties":{"stop_id":"11202","stop_name":"Farnboro Rd at Attwell Dr East Side","stop_lat":43.691554,"stop_lon":-79.58687,"routes":[{"route_id":"927","route_short_name":"927","route_long_name":"Highway 27 Express"}],"frequency":{"early_morning":3.5,"am_peak":6,"midday":1.3,"pm_peak":6.3,"evening":0.7,"night":0}}},{"type":"Feature","geometry":{"type":"Point","coordinates":[-79.228536,43.816209]},"properties":{"stop_id":"9909","stop_name":"Finch Ave East at Neilson Rd West Side","stop_lat":43.816209,"stop_lon":-79.228536,"routes":[{"route_id":"334","route_short_name":"334","route_long_name":"Eglinton"}],"frequency":{"early_morning":1,"am_peak":0,"midday":0,"pm_peak":0,"evening":0,"night":0.6}}},{"type":"Feature","geometry":{"type":"Point","coordinates":[-79.414782,43.779842]},"properties":{"stop_id":"9912","stop_name":"Finch Ave East at Yonge St East Side","stop_lat":43.779842,"stop_lon":-79.414782,"routes":[{"route_id":"336","route_short_name":"336","route_long_name":"Finch West"},{"route_id":"339","route_short_name":"339","route_long_name":"Finch East"}],"frequency":{"early_morning":1.5,"am_peak":0,"midday":0,"pm_peak":0,"evening":0,"night":2.1}}},{"type":"Feature","geometry":{"type":"Point","coordinates":[-79.647762,43.707577]},"properties":{"stop_id":"4750","stop_name":"Airport Rd at Beverley St","stop_lat":43.707577,"stop_lon":-79.647762,"routes":[{"route_id":"52","route_short_name":"52","route_long_name":"Lawrence West"}],"frequency":{"early_morning":1.5,"am_peak":2.5,"midday":3,"pm_peak":2,"evening":3,"night":1.6}}},{"type":"Feature","geometry":{"type":"Point","coordinates":[-79.609114,43.685989]},"properties":{"stop_id":"4752","stop_name":"Airport Rd at Bresler Dr West Side","stop_lat":43.685989,"stop_lon":-79.609114,"routes":[{"route_id":"52","route_short_name":"52","route_long_name":"Lawrence West"}],"frequency":{"early_morning":2,"am_peak":2,"midday":3,"pm_peak":2.5,"evening":3.3,"night":1.6}}},{"type":"Feature","geometry":{"type":"Point","coordinates":[-79.606403,43.686085]},"properties":{"stop_id":"4753","stop_name":"Airport Rd at Bresler Dr","stop_lat":43.686085,"stop_lon":-79.606403,"routes":[{"route_id":"52","route_short_name":"52","route_long_name":"Lawrence West"},{"route_id":"906","route_short_name":"906","route_long_name":"Airport-Humber College Express"}],"frequency":{"early_morning":5,"am_peak":6,"midday":7,"pm_peak":6.5,"evening":7.3,"night":3.7}}},{"type":"Feature","geometry":{"type":"Point","coordinates":[-79.647215,43.707589]},"properties":{"stop_id":"4768","stop_name":"Airport Rd at Victory Cres","stop_lat":43.707589,"stop_lon":-79.647215,"routes":[{"route_id":"52","route_short_name":"52","route_long_name":"Lawrence West"}],"frequency":{"early_morning":2,"am_peak":2,"midday":3,"pm_peak":2.3,"evening":3.3,"night":1.7}}},{"type":"Feature","geometry":{"type":"Point","coordinates":[-79.550293,43.725042]},"properties":{"stop_id":"6222","stop_name":"Albion Rd at Elmhurst Dr","stop_lat":43.725042,"stop_lon":-79.550293,"routes":[{"route_id":"118","route_short_name":"118","route_long_name":"Thistle Down"},{"route_id":"73","route_short_name":"73","route_long_name":"Royal York"}],"frequency":{"early_morning":4,"am_peak":5.5,"midday":4.7,"pm_peak":5,"evening":5.3,"night":2.7}}},{"type":"Feature","geometry":{"type":"Point","coordinates":[-79.621692,43.746942]},"properties":{"stop_id":"13427","stop_name":"Albion Rd at Humberline Dr","stop_lat":43.746942,"stop_lon":-79.621692,"routes":[{"route_id":"73","route_short_name":"73","route_long_name":"Royal York"}],"frequency":{"early_morning":2.5,"am_peak":2.5,"midday":2.7,"pm_peak":2.5,"evening":2.7,"night":1.4}}},{"type":"Feature","geometry":{"type":"Point","coordinates":[-79.565054,43.737291]},"properties":{"stop_id":"6228","stop_name":"Albion Rd at Islington Ave","stop_lat":43.737291,"stop_lon":-79.565054,"routes":[{"route_id":"73","route_short_name":"73","route_long_name":"Royal York"}],"frequency":{"early_morning":2.5,"am_peak":2.5,"midday":2.5,"pm_peak":2.5,"evening":2.7,"night":1.6}}},{"type":"Feature","geometry":{"type":"Point","coordinates":[-79.593272,43.698444]},"properties":{"stop_id":"3300","stop_name":"Attwell Dr at Belfield Rd North Side","stop_lat":43.698444,"stop_lon":-79.593272,"routes":[{"route_id":"45","route_short_name":"45","route_long_name":"Kipling"}],"frequency":{"early_morning":2,"am_peak":3.5,"midday":3.7,"pm_peak":2.8,"evening":0,"night":0}}},{"type":"Feature","geometry":{"type":"Point","coordinates":[-79.594894,43.701039]},"properties":{"stop_id":"3297","stop_name":"Attwell Dr at Disco Rd","stop_lat":43.701039,"stop_lon":-79.594894,"routes":[{"route_id":"45","route_short_name":"45","route_long_name":"Kipling"}],"frequency":{"early_morning":2,"am_peak":3.5,"midday":3.7,"pm_peak":2.8,"evening":0,"night":0}}},{"type":"Feature","geometry":{"type":"Point","coordinates":[-79.589518,43.695237]},"properties":{"stop_id":"3299","stop_name":"Attwell Dr at Marmac Dr South Side","stop_lat":43.695237,"stop_lon":-79.589518,"routes":[{"route_id":"927","route_short_name":"927","route_long_name":"Highway 27 Express"}],"frequency":{"early_morning":3.5,"am_peak":6,"midday":1.3,"pm_peak":6.3,"evening":0.7,"night":0}}},{"type":"Feature","geometry":{"type":"Point","coordinates":[-79.588761,43.693656]},"properties":{"stop_id":"9304","stop_name":"Attwell Dr at McLachlan Dr","stop_lat":43.693656,"stop_lon":-79.588761,"routes":[{"route_id":"927","route_short_name":"927","route_long_name":"Highway 27 Express"}],"frequency":{"early_morning":3.5,"am_peak":6,"midday":1.3,"pm_peak":6.3,"evening":0.7,"night":0}}},{"type":"Feature","geometry":{"type":"Point","coordinates":[-79.539233,43.638954]},"properties":{"stop_id":"14093","stop_name":"Aukland Rd at Dundas St West","stop_lat":43.638954,"stop_lon":-79.539233,"routes":[{"route_id":"300","route_short_name":"300","route_long_name":"Bloor-Danforth"}],"frequency":{"early_morning":2.5,"am_peak":0,"midday":0,"pm_peak":0,"evening":0,"night":3.3}}},{"type":"Feature","geometry":{"type":"Point","coordinates":[-79.419461,43.731855]},"properties":{"stop_id":"11238","stop_name":"Avenue Rd at Old Orchard Grove","stop_lat":43.731855,"stop_lon":-79.419461,"routes":[{"route_id":"61","route_short_name":"61","route_long_name":"Avenue Rd North"}],"frequency":{"early_morning":2.5,"am_peak":3.5,"midday":3.2,"pm_peak":3.5,"evening":3,"night":1.4}}},{"type":"Feature","geometry":{"type":"Point","coordinates":[-79.430488,43.721937]},"properties":{"stop_id":"13478","stop_name":"3174 Bathurst St","stop_lat":43.721937,"stop_lon":-79.430488,"routes":[],"frequency":{"early_morning":0,"am_peak":0,"midday":0,"pm_peak":0,"evening":0,"night":0}}},{"type":"Feature","geometry":{"type":"Point","coordinates":[-79.426541,43.705395]},"properties":{"stop_id":"134","stop_name":"Bathurst St at Elm Ridge Dr","stop_lat":43.705395,"stop_lon":-79.426541,"routes":[{"route_id":"307","route_short_name":"307","route_long_name":"Bathurst"},{"route_id":"7","route_short_name":"7","route_long_name":"Bathurst"}],"frequency":{"early_morning":5.5,"am_peak":6,"midday":6.3,"pm_peak":6.3,"evening":6.3,"night":4.3}}},{"type":"Feature","geometry":{"type":"Point","coordinates":[-79.427979,43.71225]},"properties":{"stop_id":"143","stop_name":"Bathurst St at Glencairn Ave","stop_lat":43.71225,"stop_lon":-79.427979,"routes":[{"route_id":"307","route_short_name":"307","route_long_name":"Bathurst"},{"route_id":"7","route_short_name":"7","route_long_name":"Bathurst"}],"frequency":{"early_morning":4,"am_peak":6,"midday":6.3,"pm_peak":6,"evening":6.3,"night":4.4}}},{"type":"Feature","geometry":{"type":"Point","coordinates":[-79.418455,43.683275]},"properties":{"stop_id":"204","stop_name":"Bathurst St at St Clair Ave West","stop_lat":43.683275,"stop_lon":-79.418455,"routes":[{"route_id":"307","route_short_name":"307","route_long_name":"Bathurst"},{"route_id":"7","route_short_name":"7","route_long_name":"Bathurst"}],"frequency":{"early_morning":5,"am_peak":6,"midday":6.3,"pm_peak":6.3,"evening":6.7,"night":4.3}}},{"type":"Feature","geometry":{"type":"Point","coordinates":[-79.445475,43.792055]},"properties":{"stop_id":"9719","stop_name":"Bathurst St at Steeles Ave West","stop_lat":43.792055,"stop_lon":-79.445475,"routes":[{"route_id":"160","route_short_name":"160","route_long_name":"Bathurst North"}],"frequency":{"early_morning":2,"am_peak":3,"midday":2.5,"pm_peak":2.8,"evening":2.7,"night":0}}},{"type":"Feature","geometry":{"type":"Point","coordinates":[-79.434176,43.729774]},"properties":{"stop_id":"11641","stop_name":"Baycrest Home For Aged","stop_lat":43.729774,"stop_lon":-79.434176,"routes":[],"frequency":{"early_morning":0,"am_peak":0,"midday":0,"pm_peak":0,"evening":0,"night":0}}},{"type":"Feature","geometry":{"type":"Point","coordinates":[-79.439941,43.729171]},"properties":{"stop_id":"11640","stop_name":"Wagman Centre","stop_lat":43.729171,"stop_lon":-79.439941,"routes":[],"frequency":{"early_morning":0,"am_peak":0,"midday":0,"pm_peak":0,"evening":0,"night":0}}},{"type":"Feature","geometry":{"type":"Point","coordinates":[-79.379437,43.724229]},"properties":{"stop_id":"9122","stop_name":"Bayview Ave at Valleyanna Dr","stop_lat":43.724229,"stop_lon":-79.379437,"routes":[{"route_id":"11","route_short_name":"11","route_long_name":"Bayview"},{"route_id":"124","route_short_name":"124","route_long_name":"Sunnybrook"},{"route_id":"352","route_short_name":"352","route_long_name":"Lawrence West"}],"frequency":{"early_morning":7,"am_peak":9,"midday":6.5,"pm_peak":9.3,"evening":6.7,"night":3.4}}},{"type":"Feature","geometry":{"type":"Point","coordinates":[-79.588836,43.698945]},"properties":{"stop_id":"3325","stop_name":"Belfield Rd at Brockport Dr West Side","stop_lat":43.698945,"stop_lon":-79.588836,"routes":[{"route_id":"45","route_short_name":"45","route_long_name":"Kipling"},{"route_id":"927","route_short_name":"927","route_long_name":"Highway 27 Express"}],"frequency":{"early_morning":6,"am_peak":9,"midday":5.2,"pm_peak":8.8,"evening":0.7,"night":0}}},{"type":"Feature","geometry":{"type":"Point","coordinates":[-79.589609,43.698544]},"properties":{"stop_id":"3326","stop_name":"Belfield Rd at Brockport Dr","stop_lat":43.698544,"stop_lon":-79.589609,"routes":[{"route_id":"45","route_short_name":"45","route_long_name":"Kipling"},{"route_id":"927","route_short_name":"927","route_long_name":"Highway 27 Express"}],"frequency":{"early_morning":5,"am_peak":9,"midday":4.7,"pm_peak":9,"evening":1,"night":0}}},{"type":"Feature","geometry":{"type":"Point","coordinates":[-79.494083,43.635915]},"properties":{"stop_id":"11091","stop_name":"Berry Rd at Park Lawn Rd","stop_lat":43.635915,"stop_lon":-79.494083,"routes":[{"route_id":"66","route_short_name":"66","route_long_name":"Prince Edward"}],"frequency":{"early_morning":4,"am_peak":10,"midday":4.3,"pm_peak":9.5,"evening":4.7,"night":2.4}}},{"type":"Feature","geometry":{"type":"Point","coordinates":[-79.306217,43.799148]},"properties":{"stop_id":"1740","stop_name":"Birchmount Rd at Finch Ave East","stop_lat":43.799148,"stop_lon":-79.306217,"routes":[{"route_id":"17","route_short_name":"17","route_long_name":"Birchmount"}],"frequency":{"early_morning":4.5,"am_peak":6,"midday":3.5,"pm_peak":6,"evening":3.3,"night":1.4}}},{"type":"Feature","geometry":{"type":"Point","coordinates":[-79.265226,43.69976]},"properties":{"stop_id":"7549","stop_name":"Birchmount Rd at Highview Ave South Side","stop_lat":43.69976,"stop_lon":-79.265226,"routes":[{"route_id":"117","route_short_name":"117","route_long_name":"Birchmount South"}],"frequency":{"early_morning":1.5,"am_peak":3.5,"midday":3.2,"pm_peak":3.3,"evening":3.3,"night":1.7}}},{"type":"Feature","geometry":{"type":"Point","coordinates":[-79.264956,43.699574]},"properties":{"stop_id":"7550","stop_name":"Birchmount Rd at Highview Ave","stop_lat":43.699574,"stop_lon":-79.264956,"routes":[{"route_id":"117","route_short_name":"117","route_long_name":"Birchmount South"}],"frequency":{"early_morning":1,"am_peak":3,"midday":3.3,"pm_peak":3.3,"evening":3.3,"night":1.6}}},{"type":"Feature","geometry":{"type":"Point","coordinates":[-79.316825,43.820861]},"properties":{"stop_id":"9720","stop_name":"Birchmount Rd at Steeles Ave South Side","stop_lat":43.820861,"stop_lon":-79.316825,"routes":[{"route_id":"17","route_short_name":"17","route_long_name":"Birchmount"}],"frequency":{"early_morning":11,"am_peak":12,"midday":6.8,"pm_peak":12,"evening":7,"night":3.4}}},{"type":"Feature","geometry":{"type":"Point","coordinates":[-79.524265,43.64451]},"properties":{"stop_id":"526","stop_name":"Bloor St West at Islington Ave West Side","stop_lat":43.64451,"stop_lon":-79.524265,"routes":[{"route_id":"300","route_short_name":"300","route_long_name":"Bloor-Danforth"},{"route_id":"337","route_short_name":"337","route_long_name":"Islington"}],"frequency":{"early_morning":5.5,"am_peak":0,"midday":0,"pm_peak":0,"evening":0,"night":3.7}}},{"type":"Feature","geometry":{"type":"Point","coordinates":[-79.52317,43.644845]},"properties":{"stop_id":"11999","stop_name":"Bloor St West at Islington Ave","stop_lat":43.644845,"stop_lon":-79.52317,"routes":[{"route_id":"149","route_short_name":"149","route_long_name":"Etobicoke-Bloor"},{"route_id":"300","route_short_name":"300","route_long_name":"Bloor-Danforth"}],"frequency":{"early_morning":6,"am_peak":2,"midday":2.5,"pm_peak":2,"evening":2.3,"night":4.7}}},{"type":"Feature","geometry":{"type":"Point","coordinates":[-79.484624,43.649118]},"properties":{"stop_id":"9952","stop_name":"Bloor St West at Jane St","stop_lat":43.649118,"stop_lon":-79.484624,"routes":[{"route_id":"300","route_short_name":"300","route_long_name":"Bloor-Danforth"}],"frequency":{"early_morning":3,"am_peak":0,"midday":0,"pm_peak":0,"evening":0,"night":4}}},{"type":"Feature","geometry":{"type":"Point","coordinates":[-79.358606,43.677373]},"properties":{"stop_id":"11925","stop_name":"Broadview Ave at Erindale Ave","stop_lat":43.677373,"stop_lon":-79.358606,"routes":[{"route_id":"25","route_short_name":"25","route_long_name":"Don Mills"},{"route_id":"322","route_short_name":"322","route_long_name":"Coxwell"},{"route_id":"62","route_short_name":"62","route_long_name":"Mortimer"},{"route_id":"8","route_short_name":"8","route_long_name":"Broadview"},{"route_id":"87","route_short_name":"87","route_long_name":"Cosburn"}],"frequency":{"early_morning":8.5,"am_peak":6,"midday":6,"pm_peak":6,"evening":5.7,"night":3.9}}},{"type":"Feature","geometry":{"type":"Point","coordinates":[-79.508365,43.708692]},"properties":{"stop_id":"4886","stop_name":"Church St at Uphill Ave","stop_lat":43.708692,"stop_lon":-79.508365,"routes":[{"route_id":"59","route_short_name":"59","route_long_name":"Maple Leaf"}],"frequency":{"early_morning":2.5,"am_peak":4,"midday":2.7,"pm_peak":3.3,"evening":2.7,"night":1}}},{"type":"Feature","geometry":{"type":"Point","coordinates":[-79.326731,43.690745]},"properties":{"stop_id":"4908","stop_name":"Coxwell Ave at Mortimer Ave - Michael Garron Hospital","stop_lat":43.690745,"stop_lon":-79.326731,"routes":[{"route_id":"322","route_short_name":"322","route_long_name":"Coxwell"},{"route_id":"70","route_short_name":"70","route_long_name":"O'Connor"}],"frequency":{"early_morning":3.5,"am_peak":5,"midday":5.3,"pm_peak":6,"evening":5.3,"night":3.1}}},{"type":"Feature","geometry":{"type":"Point","coordinates":[-79.328913,43.696055]},"properties":{"stop_id":"4911","stop_name":"Coxwell Ave at Plains Rd","stop_lat":43.696055,"stop_lon":-79.328913,"routes":[{"route_id":"70","route_short_name":"70","route_long_name":"O'Connor"}],"frequency":{"early_morning":3,"am_peak":5,"midday":5.3,"pm_peak":6,"evening":5.3,"night":2.3}}},{"type":"Feature","geometry":{"type":"Point","coordinates":[-79.275031,43.694178]},"properties":{"stop_id":"1842","stop_name":"3450 Danforth Ave","stop_lat":43.694178,"stop_lon":-79.275031,"routes":[{"route_id":"20","route_short_name":"20","route_long_name":"Cliffside"},{"route_id":"300","route_short_name":"300","route_long_name":"Bloor-Danforth"},{"route_id":"68","route_short_name":"68","route_long_name":"Warden"}],"frequency":{"early_morning":9.5,"am_peak":3,"midday":3.2,"pm_peak":3.5,"evening":2.3,"night":6.7}}},{"type":"Feature","geometry":{"type":"Point","coordinates":[-79.301688,43.688277]},"properties":{"stop_id":"9955","stop_name":"Danforth Ave at Main St","stop_lat":43.688277,"stop_lon":-79.301688,"routes":[{"route_id":"300","route_short_name":"300","route_long_name":"Bloor-Danforth"}],"frequency":{"early_morning":4.5,"am_peak":0,"midday":0,"pm_peak":0,"evening":0,"night":4.1}}},{"type":"Feature","geometry":{"type":"Point","coordinates":[-79.483379,43.73283]},"properties":{"stop_id":"4003","stop_name":"Keele St at Keelegate Dr","stop_lat":43.73283,"stop_lon":-79.483379,"routes":[{"route_id":"101","route_short_name":"101","route_long_name":"Downsview Park"},{"route_id":"341","route_short_name":"341","route_long_name":"Keele"},{"route_id":"41","route_short_name":"41","route_long_name":"Keele"}],"frequency":{"early_morning":8,"am_peak":8.5,"midday":6.5,"pm_peak":8.3,"evening":7,"night":2.9}}},{"type":"Feature","geometry":{"type":"Point","coordinates":[-79.467341,43.672216]},"properties":{"stop_id":"11689","stop_name":"Keele St at St Clair Ave West","stop_lat":43.672216,"stop_lon":-79.467341,"routes":[{"route_id":"89","route_short_name":"89","route_long_name":"Weston"},{"route_id":"989","route_short_name":"989","route_long_name":"Weston Express"}],"frequency":{"early_morning":7,"am_peak":10,"midday":6.7,"pm_peak":10,"evening":6.7,"night":3.6}}},{"type":"Feature","geometry":{"type":"Point","coordinates":[-79.467228,43.672009]},"properties":{"stop_id":"7899","stop_name":"Keele St at St Clair Ave West","stop_lat":43.672009,"stop_lon":-79.467228,"routes":[{"route_id":"341","route_short_name":"341","route_long_name":"Keele"},{"route_id":"41","route_short_name":"41","route_long_name":"Keele"},{"route_id":"941","route_short_name":"941","route_long_name":"Keele Express"}],"frequency":{"early_morning":8.5,"am_peak":10,"midday":6.8,"pm_peak":10,"evening":7,"night":2.7}}},{"type":"Feature","geometry":{"type":"Point","coordinates":[-79.490202,43.75995]},"properties":{"stop_id":"10755","stop_name":"Keele St at Toro Rd","stop_lat":43.75995,"stop_lon":-79.490202,"routes":[{"route_id":"101","route_short_name":"101","route_long_name":"Downsview Park"},{"route_id":"341","route_short_name":"341","route_long_name":"Keele"},{"route_id":"41","route_short_name":"41","route_long_name":"Keele"}],"frequency":{"early_morning":8.5,"am_peak":8.5,"midday":8.2,"pm_peak":8,"evening":8.3,"night":3.4}}},{"type":"Feature","geometry":{"type":"Point","coordinates":[-79.481969,43.72718]},"properties":{"stop_id":"9154","stop_name":"Keele St at Wilson Ave North Side","stop_lat":43.72718,"stop_lon":-79.481969,"routes":[{"route_id":"341","route_short_name":"341","route_long_name":"Keele"},{"route_id":"41","route_short_name":"41","route_long_name":"Keele"},{"route_id":"941","route_short_name":"941","route_long_name":"Keele Express"}],"frequency":{"early_morning":7,"am_peak":10,"midday":6.7,"pm_peak":10,"evening":8.3,"night":2.7}}},{"type":"Feature","geometry":{"type":"Point","coordinates":[-79.481998,43.727289]},"properties":{"stop_id":"14141","stop_name":"Wilson Ave at Keele St North Side","stop_lat":43.727289,"stop_lon":-79.481998,"routes":[{"route_id":"101","route_short_name":"101","route_long_name":"Downsview Park"},{"route_id":"120","route_short_name":"120","route_long_name":"Calvington"}],"frequency":{"early_morning":2.5,"am_peak":4.5,"midday":2.5,"pm_peak":4.8,"evening":3,"night":1}}},{"type":"Feature","geometry":{"type":"Point","coordinates":[-79.267673,43.731911]},"properties":{"stop_id":"2752","stop_name":"Kennedy Rd at Eglinton Ave East","stop_lat":43.731911,"stop_lon":-79.267673,"routes":[{"route_id":"113","route_short_name":"113","route_long_name":"Danforth"}],"frequency":{"early_morning":2.5,"am_peak":3,"midday":3,"pm_peak":3.8,"evening":2.7,"night":1.4}}},{"type":"Feature","geometry":{"type":"Point","coordinates":[-79.282028,43.769265]},"properties":{"stop_id":"4113","stop_name":"Kennedy Rd at Progress Ave","stop_lat":43.769265,"stop_lon":-79.282028,"routes":[{"route_id":"343","route_short_name":"343","route_long_name":"Kennedy"},{"route_id":"43","route_short_name":"43","route_long_name":"Kennedy"}],"frequency":{"early_morning":4.5,"am_peak":9.5,"midday":6,"pm_peak":8.5,"evening":7.7,"night":4.9}}},{"type":"Feature","geometry":{"type":"Point","coordinates":[-79.414528,43.641451]},"properties":{"stop_id":"13624","stop_name":"King St West at Shaw St East Side","stop_lat":43.641451,"stop_lon":-79.414528,"routes":[{"route_id":"363","route_short_name":"363","route_long_name":"Ossington"},{"route_id":"63","route_short_name":"63","route_long_name":"Ossington"}],"frequency":{"early_morning":4.5,"am_peak":12,"midday":7.7,"pm_peak":11.8,"evening":6.3,"night":4.3}}},{"type":"Feature","geometry":{"type":"Point","coordinates":[-79.412095,43.641936]},"properties":{"stop_id":"4187","stop_name":"King St West at Strachan Ave","stop_lat":43.641936,"stop_lon":-79.412095,"routes":[{"route_id":"304","route_short_name":"304","route_long_name":"King"},{"route_id":"504","route_short_name":"504","route_long_name":"King"},{"route_id":"508","route_short_name":"508","route_long_name":"Lake Shore"}],"frequency":{"early_morning":13.5,"am_peak":17.5,"midday":13,"pm_peak":13.8,"evening":13,"night":10.7}}},{"type":"Feature","geometry":{"type":"Point","coordinates":[-79.56316,43.704725]},"properties":{"stop_id":"4285","stop_name":"Kipling Ave at Belfield Rd - Etobicoke North GO Station","stop_lat":43.704725,"stop_lon":-79.56316,"routes":[{"route_id":"45","route_short_name":"45","route_long_name":"Kipling"},{"route_id":"945","route_short_name":"945","route_long_name":"Kipling Express"}],"frequency":{"early_morning":5,"am_peak":9,"midday":4.5,"pm_peak":9.3,"evening":8.3,"night":3.9}}},{"type":"Feature","geometry":{"type":"Point","coordinates":[-79.535426,43.642305]},"properties":{"stop_id":"4291","stop_name":"Kipling Ave at Bloor St West North Side","stop_lat":43.642305,"stop_lon":-79.535426,"routes":[{"route_id":"45","route_short_name":"45","route_long_name":"Kipling"},{"route_id":"46","route_short_name":"46","route_long_name":"Martin Grove"}],"frequency":{"early_morning":10.5,"am_peak":9.5,"midday":10.7,"pm_peak":10.8,"evening":9,"night":5.3}}},{"type":"Feature","geometry":{"type":"Point","coordinates":[-79.44826,43.671144]},"properties":{"stop_id":"5213","stop_name":"Lansdowne Ave at Davenport Rd South Side","stop_lat":43.671144,"stop_lon":-79.44826,"routes":[{"route_id":"47","route_short_name":"47","route_long_name":"Lansdowne"}],"frequency":{"early_morning":6.5,"am_peak":11,"midday":8.7,"pm_peak":11.8,"evening":8,"night":3.3}}},{"type":"Feature","geometry":{"type":"Point","coordinates":[-79.439653,43.649559]},"properties":{"stop_id":"11632","stop_name":"Lansdowne Ave at Dundas St West South Side","stop_lat":43.649559,"stop_lon":-79.439653,"routes":[],"frequency":{"early_morning":0,"am_peak":0,"midday":0,"pm_peak":0,"evening":0,"night":0}}},{"type":"Feature","geometry":{"type":"Point","coordinates":[-79.450405,43.676123]},"properties":{"stop_id":"11578","stop_name":"Lansdowne Ave at St Clair Ave West","stop_lat":43.676123,"stop_lon":-79.450405,"routes":[{"route_id":"47","route_short_name":"47","route_long_name":"Lansdowne"}],"frequency":{"early_morning":5.5,"am_peak":9.5,"midday":8.5,"pm_peak":12.5,"evening":8.3,"night":3.6}}},{"type":"Feature","geometry":{"type":"Point","coordinates":[-79.131368,43.780829]},"properties":{"stop_id":"13068","stop_name":"Lawrence Ave East at East Ave - Rouge Hill GO Station","stop_lat":43.780829,"stop_lon":-79.131368,"routes":[{"route_id":"354","route_short_name":"354","route_long_name":"Lawrence East"},{"route_id":"38","route_short_name":"38","route_long_name":"Highland Creek"},{"route_id":"385","route_short_name":"385","route_long_name":"Sheppard East"},{"route_id":"395","route_short_name":"395","route_long_name":"York Mills"},{"route_id":"54","route_short_name":"54","route_long_name":"Lawrence East"},{"route_id":"85","route_short_name":"85","route_long_name":"Sheppard East"},{"route_id":"954","route_short_name":"954","route_long_name":"Lawrence East Express"}],"frequency":{"early_morning":16,"am_peak":20.5,"midday":12.5,"pm_peak":17.3,"evening":12.7,"night":9.7}}},{"type":"Feature","geometry":{"type":"Point","coordinates":[-79.205766,43.763877]},"properties":{"stop_id":"5299","stop_name":"Lawrence Ave East at Orton Park Rd","stop_lat":43.763877,"stop_lon":-79.205766,"routes":[{"route_id":"354","route_short_name":"354","route_long_name":"Lawrence East"},{"route_id":"54","route_short_name":"54","route_long_name":"Lawrence East"},{"route_id":"954","route_short_name":"954","route_long_name":"Lawrence East Express"}],"frequency":{"early_morning":6,"am_peak":18.5,"midday":9.3,"pm_peak":15.3,"evening":8.7,"night":4.7}}},{"type":"Feature","geometry":{"type":"Point","coordinates":[-79.487529,43.706494]},"properties":{"stop_id":"5357","stop_name":"Lawrence Ave West at Culford Rd","stop_lat":43.706494,"stop_lon":-79.487529,"routes":[{"route_id":"352","route_short_name":"352","route_long_name":"Lawrence West"},{"route_id":"52","route_short_name":"52","route_long_name":"Lawrence West"},{"route_id":"952","route_short_name":"952","route_long_name":"Lawrence West Express"}],"frequency":{"early_morning":12.5,"am_peak":16.5,"midday":12.7,"pm_peak":18.3,"evening":11.3,"night":6}}},{"type":"Feature","geometry":{"type":"Point","coordinates":[-79.522285,43.698378]},"properties":{"stop_id":"6046","stop_name":"Lawrence Ave West at Scarlett Rd East Side","stop_lat":43.698378,"stop_lon":-79.522285,"routes":[{"route_id":"352","route_short_name":"352","route_long_name":"Lawrence West"},{"route_id":"52","route_short_name":"52","route_long_name":"Lawrence West"},{"route_id":"952","route_short_name":"952","route_long_name":"Lawrence West Express"}],"frequency":{"early_morning":11.5,"am_peak":17,"midday":13,"pm_peak":17.5,"evening":11,"night":6}}},{"type":"Feature","geometry":{"type":"Point","coordinates":[-79.437933,43.717543]},"properties":{"stop_id":"5410","stop_name":"Lawrence Ave West at Varna Dr West Side","stop_lat":43.717543,"stop_lon":-79.437933,"routes":[{"route_id":"352","route_short_name":"352","route_long_name":"Lawrence West"},{"route_id":"52","route_short_name":"52","route_long_name":"Lawrence West"}],"frequency":{"early_morning":9.5,"am_peak":8.5,"midday":9.2,"pm_peak":10,"evening":6.7,"night":4}}},{"type":"Feature","geometry":{"type":"Point","coordinates":[-79.516006,43.700276]},"properties":{"stop_id":"5415","stop_name":"Lawrence Ave West at Weston Rd - Weston GO Station","stop_lat":43.700276,"stop_lon":-79.516006,"routes":[{"route_id":"158","route_short_name":"158","route_long_name":"Trethewey"},{"route_id":"352","route_short_name":"352","route_long_name":"Lawrence West"},{"route_id":"52","route_short_name":"52","route_long_name":"Lawrence West"},{"route_id":"79","route_short_name":"79","route_long_name":"Scarlett Rd"}],"frequency":{"early_morning":21.5,"am_peak":26,"midday":20.2,"pm_peak":23.3,"evening":17.7,"night":9.9}}},{"type":"Feature","geometry":{"type":"Point","coordinates":[-79.432586,43.719613]},"properties":{"stop_id":"11638","stop_name":"Lawrence Plaza at Canada Trust","stop_lat":43.719613,"stop_lon":-79.432586,"routes":[],"frequency":{"early_morning":0,"am_peak":0,"midday":0,"pm_peak":0,"evening":0,"night":0}}},{"type":"Feature","geometry":{"type":"Point","coordinates":[-79.448281,43.717187]},"properties":{"stop_id":"11637","stop_name":"Lawrence Sq at Northwest Entrance","stop_lat":43.717187,"stop_lon":-79.448281,"routes":[],"frequency":{"early_morning":0,"am_peak":0,"midday":0,"pm_peak":0,"evening":0,"night":0}}},{"type":"Feature","geometry":{"type":"Point","coordinates":[-79.329622,43.661641]},"properties":{"stop_id":"11145","stop_name":"Leslie St at Eastern Ave","stop_lat":43.661641,"stop_lon":-79.329622,"routes":[{"route_id":"83","route_short_name":"83","route_long_name":"Jones"}],"frequency":{"early_morning":2.5,"am_peak":4,"midday":3,"pm_peak":4.5,"evening":3,"night":1.7}}},{"type":"Feature","geometry":{"type":"Point","coordinates":[-79.36075,43.757087]},"properties":{"stop_id":"5451","stop_name":"Leslie St at Kirkwood Rd North Side","stop_lat":43.757087,"stop_lon":-79.36075,"routes":[{"route_id":"51","route_short_name":"51","route_long_name":"Leslie"}],"frequency":{"early_morning":2,"am_peak":2.5,"midday":2.7,"pm_peak":2.8,"evening":2.7,"night":1.6}}},{"type":"Feature","geometry":{"type":"Point","coordinates":[-79.355687,43.734288]},"properties":{"stop_id":"5455","stop_name":"Leslie St at Lawrence Ave East","stop_lat":43.734288,"stop_lon":-79.355687,"routes":[{"route_id":"51","route_short_name":"51","route_long_name":"Leslie"}],"frequency":{"early_morning":3.5,"am_peak":5.5,"midday":5.2,"pm_peak":5.5,"evening":5,"night":2.9}}},{"type":"Feature","geometry":{"type":"Point","coordinates":[-79.330047,43.662648]},"properties":{"stop_id":"11377","stop_name":"Leslie St at Queen St East South Side","stop_lat":43.662648,"stop_lon":-79.330047,"routes":[{"route_id":"31","route_short_name":"31","route_long_name":"Greenwood"},{"route_id":"83","route_short_name":"83","route_long_name":"Jones"}],"frequency":{"early_morning":5.5,"am_peak":8,"midday":7,"pm_peak":8.5,"evening":7,"night":3.4}}},{"type":"Feature","geometry":{"type":"Point","coordinates":[-79.402303,43.690834]},"properties":{"stop_id":"1242","stop_name":"Lonsdale Rd at Avenue Rd East Side","stop_lat":43.690834,"stop_lon":-79.402303,"routes":[{"route_id":"13","route_short_name":"13","route_long_name":"Avenue Rd"}],"frequency":{"early_morning":1.5,"am_peak":2.5,"midday":2.5,"pm_peak":2.3,"evening":2.7,"night":1.4}}},{"type":"Feature","geometry":{"type":"Point","coordinates":[-79.41471,43.636511]},"properties":{"stop_id":"13366","stop_name":"Exhibition Loop at Manitoba Dr","stop_lat":43.636511,"stop_lon":-79.41471,"routes":[{"route_id":"509","route_short_name":"509","route_long_name":"Harbourfront"}],"frequency":{"early_morning":8.5,"am_peak":13,"midday":13.3,"pm_peak":12.5,"evening":12.7,"night":6.4}}},{"type":"Feature","geometry":{"type":"Point","coordinates":[-79.415373,43.636331]},"properties":{"stop_id":"12584","stop_name":"Exhibition Loop","stop_lat":43.636331,"stop_lon":-79.415373,"routes":[{"route_id":"307","route_short_name":"307","route_long_name":"Bathurst"},{"route_id":"363","route_short_name":"363","route_long_name":"Ossington"},{"route_id":"511","route_short_name":"511","route_long_name":"Bathurst"}],"frequency":{"early_morning":16,"am_peak":20,"midday":19.8,"pm_peak":20,"evening":14.3,"night":10.9}}},{"type":"Feature","geometry":{"type":"Point","coordinates":[-79.179955,43.819735]},"properties":{"stop_id":"6528","stop_name":"Toronto Zoo","stop_lat":43.819735,"stop_lon":-79.179955,"routes":[{"route_id":"86","route_short_name":"86","route_long_name":"Scarborough"}],"frequency":{"early_morning":1,"am_peak":6.5,"midday":5.7,"pm_peak":6.3,"evening":0.7,"night":0}}},{"type":"Feature","geometry":{"type":"Point","coordinates":[-79.17988,43.819606]},"properties":{"stop_id":"6527","stop_name":"Toronto Zoo","stop_lat":43.819606,"stop_lon":-79.17988,"routes":[],"frequency":{"early_morning":0,"am_peak":0,"midday":0,"pm_peak":0,"evening":0,"night":0}}},{"type":"Feature","geometry":{"type":"Point","coordinates":[-79.130474,43.780719]},"properties":{"stop_id":"5519","stop_name":"Rouge Hill GO Station Loop","stop_lat":43.780719,"stop_lon":-79.130474,"routes":[{"route_id":"385","route_short_name":"385","route_long_name":"Sheppard East"},{"route_id":"85","route_short_name":"85","route_long_name":"Sheppard East"}],"frequency":{"early_morning":6.5,"am_peak":6.5,"midday":7.8,"pm_peak":6.5,"evening":8,"night":5.4}}},{"type":"Feature","geometry":{"type":"Point","coordinates":[-79.129822,43.780905]},"properties":{"stop_id":"6530","stop_name":"Rouge Hill GO Station Loop","stop_lat":43.780905,"stop_lon":-79.129822,"routes":[{"route_id":"354","route_short_name":"354","route_long_name":"Lawrence East"},{"route_id":"54","route_short_name":"54","route_long_name":"Lawrence East"},{"route_id":"954","route_short_name":"954","route_long_name":"Lawrence East Express"}],"frequency":{"early_morning":4,"am_peak":13,"midday":5.3,"pm_peak":10,"evening":5,"night":3}}},{"type":"Feature","geometry":{"type":"Point","coordinates":[-79.478867,43.631119]},"properties":{"stop_id":"6532","stop_name":"Humber Loop at The Queensway","stop_lat":43.631119,"stop_lon":-79.478867,"routes":[{"route_id":"66","route_short_name":"66","route_long_name":"Prince Edward"}],"frequency":{"early_morning":5,"am_peak":8,"midday":4.5,"pm_peak":7.8,"evening":4,"night":2.4}}},{"type":"Feature","geometry":{"type":"Point","coordinates":[-79.47873,43.631002]},"properties":{"stop_id":"6523","stop_name":"Humber Loop at The Queensway","stop_lat":43.631002,"stop_lon":-79.47873,"routes":[{"route_id":"301","route_short_name":"301","route_long_name":"Queen"},{"route_id":"501","route_short_name":"501","route_long_name":"Queen"},{"route_id":"508","route_short_name":"508","route_long_name":"Lake Shore"}],"frequency":{"early_morning":14.5,"am_peak":12.5,"midday":12.2,"pm_peak":13.3,"evening":13.7,"night":11.4}}},{"type":"Feature","geometry":{"type":"Point","coordinates":[-79.5437,43.592111]},"properties":{"stop_id":"4435","stop_name":"Long Branch Loop - Long Branch GO Station","stop_lat":43.592111,"stop_lon":-79.5437,"routes":[{"route_id":"110","route_short_name":"110","route_long_name":"Islington South"},{"route_id":"123","route_short_name":"123","route_long_name":"Sherway"},{"route_id":"315","route_short_name":"315","route_long_name":"Evans-Brown's Line"}],"frequency":{"early_morning":15.5,"am_peak":17.5,"midday":10.7,"pm_peak":15.8,"evening":14,"night":9.1}}},{"type":"Feature","geometry":{"type":"Point","coordinates":[-79.39184,43.638419]},"properties":{"stop_id":"10927","stop_name":"Queens Quay Loop at Lower Spadina Ave","stop_lat":43.638419,"stop_lon":-79.39184,"routes":[{"route_id":"510","route_short_name":"510","route_long_name":"Spadina"}],"frequency":{"early_morning":0,"am_peak":7.5,"midday":12,"pm_peak":11.8,"evening":12,"night":0.3}}},{"type":"Feature","geometry":{"type":"Point","coordinates":[-79.640711,43.721726]},"properties":{"stop_id":"14061","stop_name":"Westwood Square Transit Terminal","stop_lat":43.721726,"stop_lon":-79.640711,"routes":[{"route_id":"52","route_short_name":"52","route_long_name":"Lawrence West"}],"frequency":{"early_morning":4,"am_peak":4,"midday":6,"pm_peak":4.5,"evening":6.3,"night":3.1}}},{"type":"Feature","geometry":{"type":"Point","coordinates":[-79.307848,43.694557]},"properties":{"stop_id":"2852","stop_name":"Lumsden Ave at Westlake Ave","stop_lat":43.694557,"stop_lon":-79.307848,"routes":[{"route_id":"62","route_short_name":"62","route_long_name":"Mortimer"}],"frequency":{"early_morning":2.5,"am_peak":3.5,"midday":3,"pm_peak":3.3,"evening":3.3,"night":1.3}}},{"type":"Feature","geometry":{"type":"Point","coordinates":[-79.233259,43.781933]},"properties":{"stop_id":"11364","stop_name":"Progress Ave at Markham Rd East Side","stop_lat":43.781933,"stop_lon":-79.233259,"routes":[{"route_id":"102","route_short_name":"102","route_long_name":"Markham Rd"},{"route_id":"134","route_short_name":"134","route_long_name":"Progress"},{"route_id":"903","route_short_name":"903","route_long_name":"Kennedy Stn-Scarborough Express"}],"frequency":{"early_morning":3.5,"am_peak":12.5,"midday":13.2,"pm_peak":13,"evening":12,"night":3.7}}},{"type":"Feature","geometry":{"type":"Point","coordinates":[-79.432965,43.635202]},"properties":{"stop_id":"11635","stop_name":"Toronto Rehab - Bickle Centre at 130 Dunn Ave","stop_lat":43.635202,"stop_lon":-79.432965,"routes":[],"frequency":{"early_morning":0,"am_peak":0,"midday":0,"pm_peak":0,"evening":0,"night":0}}},{"type":"Feature","geometry":{"type":"Point","coordinates":[-79.312948,43.667029]},"properties":{"stop_id":"11845","stop_name":"Queen St East at Kingston Rd","stop_lat":43.667029,"stop_lon":-79.312948,"routes":[{"route_id":"22","route_short_name":"22","route_long_name":"Coxwell"},{"route_id":"301","route_short_name":"301","route_long_name":"Queen"},{"route_id":"322","route_short_name":"322","route_long_name":"Coxwell"},{"route_id":"501","route_short_name":"501","route_long_name":"Queen"}],"frequency":{"early_morning":12.5,"am_peak":12,"midday":12.2,"pm_peak":12,"evening":12.7,"night":9.1}}},{"type":"Feature","geometry":{"type":"Point","coordinates":[-79.31289,43.667119]},"properties":{"stop_id":"13461","stop_name":"Queen St East at Kingston Rd","stop_lat":43.667119,"stop_lon":-79.31289,"routes":[{"route_id":"322","route_short_name":"322","route_long_name":"Coxwell"},{"route_id":"503","route_short_name":"503","route_long_name":"Kingston Rd"}],"frequency":{"early_morning":3.5,"am_peak":9.5,"midday":7.3,"pm_peak":11.8,"evening":9,"night":4.3}}},{"type":"Feature","geometry":{"type":"Point","coordinates":[-79.416852,43.644499]},"properties":{"stop_id":"6051","stop_name":"Queen St West at Shaw St","stop_lat":43.644499,"stop_lon":-79.416852,"routes":[{"route_id":"363","route_short_name":"363","route_long_name":"Ossington"}],"frequency":{"early_morning":1.5,"am_peak":0,"midday":0,"pm_peak":0,"evening":0,"night":0.7}}},{"type":"Feature","geometry":{"type":"Point","coordinates":[-79.393747,43.665601]},"properties":{"stop_id":"8038","stop_name":"Queen's Park Cres West at Hoskin Ave","stop_lat":43.665601,"stop_lon":-79.393747,"routes":[{"route_id":"94","route_short_name":"94","route_long_name":"Wellesley"}],"frequency":{"early_morning":2,"am_peak":2.5,"midday":3,"pm_peak":3,"evening":3.3,"night":1.4}}},{"type":"Feature","geometry":{"type":"Point","coordinates":[-79.391226,43.66527]},"properties":{"stop_id":"1459","stop_name":"Queen's Park Cres East at St Joseph St North Side","stop_lat":43.66527,"stop_lon":-79.391226,"routes":[{"route_id":"13","route_short_name":"13","route_long_name":"Avenue Rd"}],"frequency":{"early_morning":1.5,"am_peak":3,"midday":2.3,"pm_peak":2.5,"evening":2.7,"night":1.4}}},{"type":"Feature","geometry":{"type":"Point","coordinates":[-79.501779,43.626433]},"properties":{"stop_id":"12139","stop_name":"The Queensway at Morgan Ave","stop_lat":43.626433,"stop_lon":-79.501779,"routes":[{"route_id":"76","route_short_name":"76","route_long_name":"Royal York South"}],"frequency":{"early_morning":0.5,"am_peak":3,"midday":2,"pm_peak":3,"evening":2,"night":0.1}}},{"type":"Feature","geometry":{"type":"Point","coordinates":[-79.484019,43.630517]},"properties":{"stop_id":"6920","stop_name":"The Queensway at Stephen Dr","stop_lat":43.630517,"stop_lon":-79.484019,"routes":[{"route_id":"80","route_short_name":"80","route_long_name":"Queensway"}],"frequency":{"early_morning":2.5,"am_peak":2.5,"midday":2.3,"pm_peak":2.3,"evening":2.7,"night":1.4}}},{"type":"Feature","geometry":{"type":"Point","coordinates":[-79.470466,43.637314]},"properties":{"stop_id":"6923","stop_name":"The Queensway at Windermere Ave West Side","stop_lat":43.637314,"stop_lon":-79.470466,"routes":[{"route_id":"77","route_short_name":"77","route_long_name":"Swansea"},{"route_id":"80","route_short_name":"80","route_long_name":"Queensway"}],"frequency":{"early_morning":7.5,"am_peak":8.5,"midday":4.5,"pm_peak":6.3,"evening":5,"night":2.6}}},{"type":"Feature","geometry":{"type":"Point","coordinates":[-79.446615,43.658448]},"properties":{"stop_id":"11631","stop_name":"55 Rankin Cres","stop_lat":43.658448,"stop_lon":-79.446615,"routes":[],"frequency":{"early_morning":0,"am_peak":0,"midday":0,"pm_peak":0,"evening":0,"night":0}}},{"type":"Feature","geometry":{"type":"Point","coordinates":[-79.546369,43.659201]},"properties":{"stop_id":"6011","stop_name":"Rathburn Rd at Lloyd Manor Rd","stop_lat":43.659201,"stop_lon":-79.546369,"routes":[{"route_id":"46","route_short_name":"46","route_long_name":"Martin Grove"}],"frequency":{"early_morning":4.5,"am_peak":4,"midday":3.2,"pm_peak":4.5,"evening":3.3,"night":1.4}}},{"type":"Feature","geometry":{"type":"Point","coordinates":[-79.587166,43.666096]},"properties":{"stop_id":"8069","stop_name":"Renforth Dr at Eglinton Ave West","stop_lat":43.666096,"stop_lon":-79.587166,"routes":[{"route_id":"112","route_short_name":"112","route_long_name":"West Mall"}],"frequency":{"early_morning":2.5,"am_peak":5.5,"midday":5.3,"pm_peak":4.8,"evening":3.7,"night":1.6}}},{"type":"Feature","geometry":{"type":"Point","coordinates":[-79.582965,43.659476]},"properties":{"stop_id":"11628","stop_name":"Michael Power / St Joseph H.S.","stop_lat":43.659476,"stop_lon":-79.582965,"routes":[],"frequency":{"early_morning":0,"am_peak":0,"midday":0,"pm_peak":0,"evening":0,"night":0}}},{"type":"Feature","geometry":{"type":"Point","coordinates":[-79.582873,43.659289]},"properties":{"stop_id":"11627","stop_name":"Michael Power / St Joseph H.S.","stop_lat":43.659289,"stop_lon":-79.582873,"routes":[],"frequency":{"early_morning":0,"am_peak":0,"midday":0,"pm_peak":0,"evening":0,"night":0}}},{"type":"Feature","geometry":{"type":"Point","coordinates":[-79.471323,43.68219]},"properties":{"stop_id":"6031","stop_name":"Rogers Rd at Keele St","stop_lat":43.68219,"stop_lon":-79.471323,"routes":[{"route_id":"161","route_short_name":"161","route_long_name":"Rogers Rd"},{"route_id":"168","route_short_name":"168","route_long_name":"Symington"}],"frequency":{"early_morning":6.5,"am_peak":8,"midday":7.7,"pm_peak":9,"evening":8.3,"night":3.4}}},{"type":"Feature","geometry":{"type":"Point","coordinates":[-79.533986,43.699615]},"properties":{"stop_id":"6991","stop_name":"Royal York Rd at Dixon Rd","stop_lat":43.699615,"stop_lon":-79.533986,"routes":[{"route_id":"73","route_short_name":"73","route_long_name":"Royal York"}],"frequency":{"early_morning":3.5,"am_peak":5,"midday":3.3,"pm_peak":5,"evening":2.7,"night":1.3}}},{"type":"Feature","geometry":{"type":"Point","coordinates":[-79.500227,43.761193]},"properties":{"stop_id":"8082","stop_name":"Sentinel Rd at Finch Ave West","stop_lat":43.761193,"stop_lon":-79.500227,"routes":[{"route_id":"106","route_short_name":"106","route_long_name":"Sentinel"}],"frequency":{"early_morning":3,"am_peak":3.5,"midday":3,"pm_peak":4.3,"evening":3.7,"night":1.9}}},{"type":"Feature","geometry":{"type":"Point","coordinates":[-79.502298,43.769916]},"properties":{"stop_id":"4498","stop_name":"Sentinel Rd at The Pond Rd","stop_lat":43.769916,"stop_lon":-79.502298,"routes":[{"route_id":"41","route_short_name":"41","route_long_name":"Keele"}],"frequency":{"early_morning":4,"am_peak":6,"midday":6,"pm_peak":6,"evening":6.7,"night":2.3}}},{"type":"Feature","geometry":{"type":"Point","coordinates":[-79.215028,43.807953]},"properties":{"stop_id":"10870","stop_name":"Sewells Rd at Brenyon Way East Side","stop_lat":43.807953,"stop_lon":-79.215028,"routes":[{"route_id":"131","route_short_name":"131","route_long_name":"Nugget"}],"frequency":{"early_morning":2,"am_peak":4.5,"midday":3.7,"pm_peak":4.5,"evening":3.7,"night":1.6}}},{"type":"Feature","geometry":{"type":"Point","coordinates":[-79.215527,43.80792]},"properties":{"stop_id":"10873","stop_name":"Sewells Rd at Brenyon Way","stop_lat":43.80792,"stop_lon":-79.215527,"routes":[{"route_id":"131","route_short_name":"131","route_long_name":"Nugget"}],"frequency":{"early_morning":3.5,"am_peak":5,"midday":3.5,"pm_peak":4.5,"evening":3.7,"night":1.4}}},{"type":"Feature","geometry":{"type":"Point","coordinates":[-79.213775,43.810308]},"properties":{"stop_id":"10871","stop_name":"Sewells Rd at McLevin Ave","stop_lat":43.810308,"stop_lon":-79.213775,"routes":[{"route_id":"131","route_short_name":"131","route_long_name":"Nugget"}],"frequency":{"early_morning":2,"am_peak":4.5,"midday":3.7,"pm_peak":4.3,"evening":4,"night":1.6}}},{"type":"Feature","geometry":{"type":"Point","coordinates":[-79.171104,43.80818]},"properties":{"stop_id":"11669","stop_name":"Sheppard Ave East at Meadowvale Rd","stop_lat":43.80818,"stop_lon":-79.171104,"routes":[{"route_id":"385","route_short_name":"385","route_long_name":"Sheppard East"},{"route_id":"85","route_short_name":"85","route_long_name":"Sheppard East"}],"frequency":{"early_morning":3,"am_peak":3,"midday":4,"pm_peak":3.3,"evening":4,"night":2.7}}},{"type":"Feature","geometry":{"type":"Point","coordinates":[-79.322236,43.775286]},"properties":{"stop_id":"13918","stop_name":"Sheppard Ave East at Victoria Park Ave East Side","stop_lat":43.775286,"stop_lon":-79.322236,"routes":[{"route_id":"904","route_short_name":"904","route_long_name":"Sheppard-Kennedy Express"},{"route_id":"985","route_short_name":"985","route_long_name":"Sheppard East Express"}],"frequency":{"early_morning":2,"am_peak":7.5,"midday":5.2,"pm_peak":7.8,"evening":4.3,"night":1.9}}},{"type":"Feature","geometry":{"type":"Point","coordinates":[-79.512583,43.739369]},"properties":{"stop_id":"6069","stop_name":"Sheppard Ave West at Jane St East Side","stop_lat":43.739369,"stop_lon":-79.512583,"routes":[{"route_id":"384","route_short_name":"384","route_long_name":"Sheppard West"},{"route_id":"84","route_short_name":"84","route_long_name":"Sheppard West"},{"route_id":"984","route_short_name":"984","route_long_name":"Sheppard West Express"}],"frequency":{"early_morning":9,"am_peak":18.5,"midday":10,"pm_peak":14.3,"evening":8.7,"night":4.3}}},{"type":"Feature","geometry":{"type":"Point","coordinates":[-79.491659,43.743786]},"properties":{"stop_id":"6087","stop_name":"Sheppard Ave West at Sentinel Rd","stop_lat":43.743786,"stop_lon":-79.491659,"routes":[{"route_id":"108","route_short_name":"108","route_long_name":"Driftwood"},{"route_id":"384","route_short_name":"384","route_long_name":"Sheppard West"},{"route_id":"84","route_short_name":"84","route_long_name":"Sheppard West"},{"route_id":"984","route_short_name":"984","route_long_name":"Sheppard West Express"}],"frequency":{"early_morning":7.5,"am_peak":20,"midday":12.8,"pm_peak":17.3,"evening":13.3,"night":5.3}}},{"type":"Feature","geometry":{"type":"Point","coordinates":[-79.463904,43.750252]},"properties":{"stop_id":"4598","stop_name":"Sheppard Ave West at William R Allen Rd West Side","stop_lat":43.750252,"stop_lon":-79.463904,"routes":[{"route_id":"106","route_short_name":"106","route_long_name":"Sentinel"},{"route_id":"107","route_short_name":"107","route_long_name":"Alness-Chesswood"},{"route_id":"108","route_short_name":"108","route_long_name":"Driftwood"},{"route_id":"384","route_short_name":"384","route_long_name":"Sheppard West"},{"route_id":"84","route_short_name":"84","route_long_name":"Sheppard West"}],"frequency":{"early_morning":15.5,"am_peak":24,"midday":20,"pm_peak":19.8,"evening":18.7,"night":8.9}}},{"type":"Feature","geometry":{"type":"Point","coordinates":[-79.558438,43.609729]},"properties":{"stop_id":"3117","stop_name":"Sherway Gardens Rd at Sherway Gate (Mall)","stop_lat":43.609729,"stop_lon":-79.558438,"routes":[{"route_id":"123","route_short_name":"123","route_long_name":"Sherway"}],"frequency":{"early_morning":10,"am_peak":16,"midday":8.3,"pm_peak":14.8,"evening":9.7,"night":5.1}}},{"type":"Feature","geometry":{"type":"Point","coordinates":[-79.558228,43.610024]},"properties":{"stop_id":"9108","stop_name":"Sherway Gardens Rd at Sherway Gate Mall West Side","stop_lat":43.610024,"stop_lon":-79.558228,"routes":[{"route_id":"80","route_short_name":"80","route_long_name":"Queensway"}],"frequency":{"early_morning":7,"am_peak":9.5,"midday":5.3,"pm_peak":8.5,"evening":5.7,"night":2.7}}},{"type":"Feature","geometry":{"type":"Point","coordinates":[-79.558022,43.609785]},"properties":{"stop_id":"9109","stop_name":"Sherway Gardens Rd at Sherway Gate Mall","stop_lat":43.609785,"stop_lon":-79.558022,"routes":[{"route_id":"123","route_short_name":"123","route_long_name":"Sherway"}],"frequency":{"early_morning":15,"am_peak":22,"midday":11.8,"pm_peak":21.8,"evening":10,"night":5.1}}},{"type":"Feature","geometry":{"type":"Point","coordinates":[-79.557773,43.609847]},"properties":{"stop_id":"11587","stop_name":"Sherway Gardens Rd at Sherway Gate (Mall)","stop_lat":43.609847,"stop_lon":-79.557773,"routes":[{"route_id":"123","route_short_name":"123","route_long_name":"Sherway"},{"route_id":"15","route_short_name":"15","route_long_name":"Evans"},{"route_id":"315","route_short_name":"315","route_long_name":"Evans-Brown's Line"}],"frequency":{"early_morning":8.5,"am_peak":9.5,"midday":7.5,"pm_peak":11.8,"evening":9.3,"night":6.9}}},{"type":"Feature","geometry":{"type":"Point","coordinates":[-79.301635,43.688037]},"properties":{"stop_id":"1262","stop_name":"Main St at Danforth Ave - Danforth GO Station","stop_lat":43.688037,"stop_lon":-79.301635,"routes":[{"route_id":"306","route_short_name":"306","route_long_name":"Carlton"},{"route_id":"506","route_short_name":"506","route_long_name":"Carlton"}],"frequency":{"early_morning":7.5,"am_peak":6,"midday":6,"pm_peak":6.3,"evening":6.3,"night":5.7}}},{"type":"Feature","geometry":{"type":"Point","coordinates":[-79.301532,43.687796]},"properties":{"stop_id":"11826","stop_name":"Main St at Danforth Ave - Danforth GO Station","stop_lat":43.687796,"stop_lon":-79.301532,"routes":[{"route_id":"135","route_short_name":"135","route_long_name":"Gerrard"},{"route_id":"64","route_short_name":"64","route_long_name":"Main"},{"route_id":"87","route_short_name":"87","route_long_name":"Cosburn"}],"frequency":{"early_morning":7,"am_peak":9,"midday":8.8,"pm_peak":8.3,"evening":6.7,"night":3.1}}},{"type":"Feature","geometry":{"type":"Point","coordinates":[-79.303255,43.691558]},"properties":{"stop_id":"2855","stop_name":"Main St at Doncaster Ave","stop_lat":43.691558,"stop_lon":-79.303255,"routes":[{"route_id":"87","route_short_name":"87","route_long_name":"Cosburn"}],"frequency":{"early_morning":5.5,"am_peak":6.5,"midday":6,"pm_peak":6,"evening":6,"night":3.1}}},{"type":"Feature","geometry":{"type":"Point","coordinates":[-79.300315,43.684061]},"properties":{"stop_id":"1264","stop_name":"Main St at Gerrard St East","stop_lat":43.684061,"stop_lon":-79.300315,"routes":[{"route_id":"506","route_short_name":"506","route_long_name":"Carlton"},{"route_id":"64","route_short_name":"64","route_long_name":"Main"}],"frequency":{"early_morning":10.5,"am_peak":12,"midday":12.2,"pm_peak":12,"evening":9.3,"night":4.6}}},{"type":"Feature","geometry":{"type":"Point","coordinates":[-79.300207,43.684182]},"properties":{"stop_id":"13923","stop_name":"Main St at Gerrard St East","stop_lat":43.684182,"stop_lon":-79.300207,"routes":[{"route_id":"135","route_short_name":"135","route_long_name":"Gerrard"},{"route_id":"306","route_short_name":"306","route_long_name":"Carlton"},{"route_id":"506","route_short_name":"506","route_long_name":"Carlton"}],"frequency":{"early_morning":10,"am_peak":8.5,"midday":8.8,"pm_peak":8.3,"evening":9.3,"night":7.4}}},{"type":"Feature","geometry":{"type":"Point","coordinates":[-79.250611,43.831141]},"properties":{"stop_id":"13900","stop_name":"Markham Rd at Passmore Ave North Side","stop_lat":43.831141,"stop_lon":-79.250611,"routes":[{"route_id":"102","route_short_name":"102","route_long_name":"Markham Rd"}],"frequency":{"early_morning":1.5,"am_peak":5,"midday":1,"pm_peak":0,"evening":0,"night":0}}},{"type":"Feature","geometry":{"type":"Point","coordinates":[-79.591714,43.737241]},"properties":{"stop_id":"11331","stop_name":"Martin Grove Rd at Finch Ave West North Side","stop_lat":43.737241,"stop_lon":-79.591714,"routes":[{"route_id":"927","route_short_name":"927","route_long_name":"Highway 27 Express"}],"frequency":{"early_morning":4,"am_peak":6,"midday":6.2,"pm_peak":6.3,"evening":6,"night":3}}},{"type":"Feature","geometry":{"type":"Point","coordinates":[-79.589166,43.731919]},"properties":{"stop_id":"5620","stop_name":"Martin Grove Rd at John Garland Blvd","stop_lat":43.731919,"stop_lon":-79.589166,"routes":[{"route_id":"396","route_short_name":"396","route_long_name":"Wilson"},{"route_id":"46","route_short_name":"46","route_long_name":"Martin Grove"}],"frequency":{"early_morning":5,"am_peak":4,"midday":3.2,"pm_peak":4.5,"evening":3.7,"night":2.6}}},{"type":"Feature","geometry":{"type":"Point","coordinates":[-79.586894,43.726119]},"properties":{"stop_id":"5627","stop_name":"Martin Grove Rd at Mercury Rd","stop_lat":43.726119,"stop_lon":-79.586894,"routes":[{"route_id":"46","route_short_name":"46","route_long_name":"Martin Grove"}],"frequency":{"early_morning":4,"am_peak":4.5,"midday":3.2,"pm_peak":4.3,"evening":2.7,"night":1.1}}},{"type":"Feature","geometry":{"type":"Point","coordinates":[-79.586705,43.726355]},"properties":{"stop_id":"7957","stop_name":"Westhumber Blvd at Martin Grove Rd North Side","stop_lat":43.726355,"stop_lon":-79.586705,"routes":[{"route_id":"396","route_short_name":"396","route_long_name":"Wilson"},{"route_id":"96","route_short_name":"96","route_long_name":"Wilson"},{"route_id":"996","route_short_name":"996","route_long_name":"Wilson Express"}],"frequency":{"early_morning":5,"am_peak":9,"midday":8,"pm_peak":9,"evening":5,"night":3.1}}},{"type":"Feature","geometry":{"type":"Point","coordinates":[-79.27602,43.834965]},"properties":{"stop_id":"9993","stop_name":"McCowan Rd at Elson St","stop_lat":43.834965,"stop_lon":-79.27602,"routes":[{"route_id":"129","route_short_name":"129","route_long_name":"McCowan North"}],"frequency":{"early_morning":3.5,"am_peak":4.5,"midday":2.7,"pm_peak":4.3,"evening":2.3,"night":0.9}}},{"type":"Feature","geometry":{"type":"Point","coordinates":[-79.2752,43.83177]},"properties":{"stop_id":"9807","stop_name":"McCowan Rd at Steeles Ave East North Side","stop_lat":43.83177,"stop_lon":-79.2752,"routes":[{"route_id":"129","route_short_name":"129","route_long_name":"McCowan North"},{"route_id":"316","route_short_name":"316","route_long_name":"Kingston Rd-McCowan"}],"frequency":{"early_morning":5,"am_peak":6.5,"midday":6.3,"pm_peak":6.8,"evening":7,"night":4.9}}},{"type":"Feature","geometry":{"type":"Point","coordinates":[-79.275161,43.830294]},"properties":{"stop_id":"10577","stop_name":"McCowan Rd at Steeles Ave East South Side","stop_lat":43.830294,"stop_lon":-79.275161,"routes":[{"route_id":"129","route_short_name":"129","route_long_name":"McCowan North"},{"route_id":"316","route_short_name":"316","route_long_name":"Kingston Rd-McCowan"}],"frequency":{"early_morning":6,"am_peak":6,"midday":6.2,"pm_peak":6.5,"evening":6.7,"night":3.9}}},{"type":"Feature","geometry":{"type":"Point","coordinates":[-79.335709,43.804303]},"properties":{"stop_id":"2874","stop_name":"1020 McNicoll Ave","stop_lat":43.804303,"stop_lon":-79.335709,"routes":[{"route_id":"42","route_short_name":"42","route_long_name":"Cummer"}],"frequency":{"early_morning":4,"am_peak":7,"midday":4,"pm_peak":5.8,"evening":4.7,"night":1.4}}},{"type":"Feature","geometry":{"type":"Point","coordinates":[-79.306447,43.809896]},"properties":{"stop_id":"12017","stop_name":"McNicoll Ave at Silver Springs Blvd","stop_lat":43.809896,"stop_lon":-79.306447,"routes":[{"route_id":"42","route_short_name":"42","route_long_name":"Cummer"}],"frequency":{"early_morning":1,"am_peak":6,"midday":4.3,"pm_peak":5.5,"evening":5,"night":1.6}}},{"type":"Feature","geometry":{"type":"Point","coordinates":[-79.306225,43.810154]},"properties":{"stop_id":"12035","stop_name":"McNicoll Ave at Silver Springs Blvd","stop_lat":43.810154,"stop_lon":-79.306225,"routes":[{"route_id":"42","route_short_name":"42","route_long_name":"Cummer"}],"frequency":{"early_morning":4.5,"am_peak":7.5,"midday":3.7,"pm_peak":6,"evening":4.3,"night":1.4}}},{"type":"Feature","geometry":{"type":"Point","coordinates":[-79.336632,43.803924]},"properties":{"stop_id":"9179","stop_name":"McNicoll Ave at Victoria Park Ave","stop_lat":43.803924,"stop_lon":-79.336632,"routes":[{"route_id":"39","route_short_name":"39","route_long_name":"Finch East"},{"route_id":"42","route_short_name":"42","route_long_name":"Cummer"}],"frequency":{"early_morning":3,"am_peak":9,"midday":5.5,"pm_peak":9.3,"evening":4.7,"night":1.6}}},{"type":"Feature","geometry":{"type":"Point","coordinates":[-79.171055,43.808582]},"properties":{"stop_id":"6575","stop_name":"Meadowvale Rd at Sheppard Ave East","stop_lat":43.808582,"stop_lon":-79.171055,"routes":[{"route_id":"386","route_short_name":"386","route_long_name":"Scarborough"},{"route_id":"86","route_short_name":"86","route_long_name":"Scarborough"},{"route_id":"986","route_short_name":"986","route_long_name":"Scarborough Express"}],"frequency":{"early_morning":10.5,"am_peak":10.5,"midday":2.7,"pm_peak":7.8,"evening":3.3,"night":5}}},{"type":"Feature","geometry":{"type":"Point","coordinates":[-79.193257,43.789009]},"properties":{"stop_id":"11415","stop_name":"Military Trail at Morningside Ave","stop_lat":43.789009,"stop_lon":-79.193257,"routes":[{"route_id":"12","route_short_name":"12","route_long_name":"Kingston Rd"},{"route_id":"905","route_short_name":"905","route_long_name":"Eglinton East Express"}],"frequency":{"early_morning":1,"am_peak":10,"midday":11.8,"pm_peak":11,"evening":10.3,"night":1}}},{"type":"Feature","geometry":{"type":"Point","coordinates":[-79.353246,43.702117]},"properties":{"stop_id":"5753","stop_name":"Millwood Rd at Overlea Blvd North Side","stop_lat":43.702117,"stop_lon":-79.353246,"routes":[{"route_id":"51","route_short_name":"51","route_long_name":"Leslie"}],"frequency":{"early_morning":3,"am_peak":5.5,"midday":5.2,"pm_peak":5.5,"evening":5,"night":2.7}}},{"type":"Feature","geometry":{"type":"Point","coordinates":[-79.20275,43.809256]},"properties":{"stop_id":"10947","stop_name":"Morningside Ave at Casebridge Crt North Side","stop_lat":43.809256,"stop_lon":-79.20275,"routes":[{"route_id":"131","route_short_name":"131","route_long_name":"Nugget"}],"frequency":{"early_morning":1.5,"am_peak":5,"midday":3.7,"pm_peak":4.3,"evening":4,"night":1.6}}},{"type":"Feature","geometry":{"type":"Point","coordinates":[-79.206022,43.813037]},"properties":{"stop_id":"11249","stop_name":"Morningside Ave at John Stoner Dr South Side","stop_lat":43.813037,"stop_lon":-79.206022,"routes":[{"route_id":"131","route_short_name":"131","route_long_name":"Nugget"}],"frequency":{"early_morning":4,"am_peak":4.5,"midday":3.7,"pm_peak":4.5,"evening":4.3,"night":1.7}}},{"type":"Feature","geometry":{"type":"Point","coordinates":[-79.230475,43.823402]},"properties":{"stop_id":"13906","stop_name":"Nightstar Rd at Morningside Ave North Side","stop_lat":43.823402,"stop_lon":-79.230475,"routes":[{"route_id":"133","route_short_name":"133","route_long_name":"Neilson"},{"route_id":"53","route_short_name":"53","route_long_name":"Steeles East"},{"route_id":"939","route_short_name":"939","route_long_name":"Finch Express"},{"route_id":"953","route_short_name":"953","route_long_name":"Steeles East Express"}],"frequency":{"early_morning":16.5,"am_peak":20.5,"midday":11.7,"pm_peak":17.8,"evening":9.3,"night":3.9}}},{"type":"Feature","geometry":{"type":"Point","coordinates":[-79.232874,43.826549]},"properties":{"stop_id":"14104","stop_name":"2851 Morningside Ave Walkway to Raponi Cir","stop_lat":43.826549,"stop_lon":-79.232874,"routes":[{"route_id":"133","route_short_name":"133","route_long_name":"Neilson"},{"route_id":"53","route_short_name":"53","route_long_name":"Steeles East"},{"route_id":"939","route_short_name":"939","route_long_name":"Finch Express"},{"route_id":"953","route_short_name":"953","route_long_name":"Steeles East Express"}],"frequency":{"early_morning":12.5,"am_peak":15,"midday":9.7,"pm_peak":13.8,"evening":8.3,"night":3.9}}},{"type":"Feature","geometry":{"type":"Point","coordinates":[-79.643204,43.719752]},"properties":{"stop_id":"5755","stop_name":"Morning Star Dr at Catalpa Rd","stop_lat":43.719752,"stop_lon":-79.643204,"routes":[{"route_id":"52","route_short_name":"52","route_long_name":"Lawrence West"}],"frequency":{"early_morning":2,"am_peak":2,"midday":3,"pm_peak":2.3,"evening":3.3,"night":1.7}}},{"type":"Feature","geometry":{"type":"Point","coordinates":[-79.643031,43.720149]},"properties":{"stop_id":"5756","stop_name":"Morning Star Dr at Catalpa Rd","stop_lat":43.720149,"stop_lon":-79.643031,"routes":[{"route_id":"52","route_short_name":"52","route_long_name":"Lawrence West"}],"frequency":{"early_morning":2,"am_peak":2,"midday":3,"pm_peak":2.3,"evening":3,"night":1.4}}},{"type":"Feature","geometry":{"type":"Point","coordinates":[-79.649766,43.709985]},"properties":{"stop_id":"5758","stop_name":"Morning Star Dr at Airport Rd East Side","stop_lat":43.709985,"stop_lon":-79.649766,"routes":[{"route_id":"52","route_short_name":"52","route_long_name":"Lawrence West"}],"frequency":{"early_morning":2,"am_peak":2,"midday":3,"pm_peak":2.3,"evening":3.3,"night":1.7}}},{"type":"Feature","geometry":{"type":"Point","coordinates":[-79.647418,43.712757]},"properties":{"stop_id":"5759","stop_name":"Morning Star Dr at Lancaster Ave","stop_lat":43.712757,"stop_lon":-79.647418,"routes":[{"route_id":"52","route_short_name":"52","route_long_name":"Lawrence West"}],"frequency":{"early_morning":2,"am_peak":2,"midday":3,"pm_peak":2.3,"evening":3.3,"night":1.7}}},{"type":"Feature","geometry":{"type":"Point","coordinates":[-79.647738,43.71257]},"properties":{"stop_id":"5760","stop_name":"Morning Star Dr at Manion Rd","stop_lat":43.71257,"stop_lon":-79.647738,"routes":[{"route_id":"52","route_short_name":"52","route_long_name":"Lawrence West"}],"frequency":{"early_morning":2,"am_peak":2,"midday":3,"pm_peak":2.3,"evening":2.7,"night":1.6}}},{"type":"Feature","geometry":{"type":"Point","coordinates":[-79.646964,43.714132]},"properties":{"stop_id":"5763","stop_name":"Morning Star Dr at Reindeer Dr West Side","stop_lat":43.714132,"stop_lon":-79.646964,"routes":[{"route_id":"52","route_short_name":"52","route_long_name":"Lawrence West"}],"frequency":{"early_morning":2,"am_peak":2,"midday":3,"pm_peak":2.3,"evening":2.7,"night":1.6}}},{"type":"Feature","geometry":{"type":"Point","coordinates":[-79.646501,43.714642]},"properties":{"stop_id":"5764","stop_name":"Morning Star Dr at Reindeer Dr","stop_lat":43.714642,"stop_lon":-79.646501,"routes":[{"route_id":"52","route_short_name":"52","route_long_name":"Lawrence West"}],"frequency":{"early_morning":2,"am_peak":2,"midday":3,"pm_peak":2.3,"evening":3.3,"night":1.7}}},{"type":"Feature","geometry":{"type":"Point","coordinates":[-79.327056,43.69056]},"properties":{"stop_id":"5773","stop_name":"Mortimer Ave at Coxwell Ave West Side - Michael Garron Hospital","stop_lat":43.69056,"stop_lon":-79.327056,"routes":[{"route_id":"62","route_short_name":"62","route_long_name":"Mortimer"}],"frequency":{"early_morning":2.5,"am_peak":3.5,"midday":3,"pm_peak":3.3,"evening":3.3,"night":1.3}}},{"type":"Feature","geometry":{"type":"Point","coordinates":[-79.3902,43.708909]},"properties":{"stop_id":"5813","stop_name":"Mt Pleasant Rd at Eglinton Ave East North Side","stop_lat":43.708909,"stop_lon":-79.3902,"routes":[{"route_id":"103","route_short_name":"103","route_long_name":"Mount Pleasant North"}],"frequency":{"early_morning":2,"am_peak":2.5,"midday":2.3,"pm_peak":2.5,"evening":3,"night":1}}},{"type":"Feature","geometry":{"type":"Point","coordinates":[-79.227311,43.81544]},"properties":{"stop_id":"1380","stop_name":"Neilson Rd at Finch Ave East South Side","stop_lat":43.81544,"stop_lon":-79.227311,"routes":[{"route_id":"133","route_short_name":"133","route_long_name":"Neilson"}],"frequency":{"early_morning":5,"am_peak":5,"midday":5.2,"pm_peak":6,"evening":5,"night":1.3}}},{"type":"Feature","geometry":{"type":"Point","coordinates":[-79.227412,43.815638]},"properties":{"stop_id":"11667","stop_name":"Neilson Rd at Finch Ave East South Side","stop_lat":43.815638,"stop_lon":-79.227412,"routes":[{"route_id":"334","route_short_name":"334","route_long_name":"Eglinton"},{"route_id":"39","route_short_name":"39","route_long_name":"Finch East"}],"frequency":{"early_morning":3.5,"am_peak":3.5,"midday":3.3,"pm_peak":3.5,"evening":4.3,"night":3}}},{"type":"Feature","geometry":{"type":"Point","coordinates":[-79.442725,43.696926]},"properties":{"stop_id":"5904","stop_name":"Oakwood Ave at Eglinton Ave West South Side","stop_lat":43.696926,"stop_lon":-79.442725,"routes":[{"route_id":"363","route_short_name":"363","route_long_name":"Ossington"},{"route_id":"63","route_short_name":"63","route_long_name":"Ossington"},{"route_id":"90","route_short_name":"90","route_long_name":"Vaughan"}],"frequency":{"early_morning":9.5,"am_peak":12.5,"midday":13.2,"pm_peak":12.3,"evening":11.3,"night":5.9}}},{"type":"Feature","geometry":{"type":"Point","coordinates":[-79.438568,43.687031]},"properties":{"stop_id":"5911","stop_name":"Oakwood Ave at Rogers Rd","stop_lat":43.687031,"stop_lon":-79.438568,"routes":[{"route_id":"363","route_short_name":"363","route_long_name":"Ossington"},{"route_id":"63","route_short_name":"63","route_long_name":"Ossington"}],"frequency":{"early_morning":4,"am_peak":5.5,"midday":7,"pm_peak":7,"evening":8,"night":4.6}}},{"type":"Feature","geometry":{"type":"Point","coordinates":[-79.350439,43.693124]},"properties":{"stop_id":"1419","stop_name":"O'Connor Dr at Pape Ave","stop_lat":43.693124,"stop_lon":-79.350439,"routes":[{"route_id":"8","route_short_name":"8","route_long_name":"Broadview"}],"frequency":{"early_morning":3,"am_peak":2.5,"midday":2.7,"pm_peak":2.8,"evening":2.7,"night":1.6}}},{"type":"Feature","geometry":{"type":"Point","coordinates":[-79.463061,43.673945]},"properties":{"stop_id":"4509","stop_name":"Old Weston Rd at St Clair Ave West North Side","stop_lat":43.673945,"stop_lon":-79.463061,"routes":[{"route_id":"168","route_short_name":"168","route_long_name":"Symington"},{"route_id":"341","route_short_name":"341","route_long_name":"Keele"},{"route_id":"41","route_short_name":"41","route_long_name":"Keele"},{"route_id":"941","route_short_name":"941","route_long_name":"Keele Express"}],"frequency":{"early_morning":11.5,"am_peak":15,"midday":11.2,"pm_peak":15.3,"evening":11,"night":4.7}}},{"type":"Feature","geometry":{"type":"Point","coordinates":[-79.462852,43.673248]},"properties":{"stop_id":"11583","stop_name":"Old Weston Rd at St Clair Ave West","stop_lat":43.673248,"stop_lon":-79.462852,"routes":[{"route_id":"127","route_short_name":"127","route_long_name":"Davenport"}],"frequency":{"early_morning":1.5,"am_peak":2.5,"midday":2.7,"pm_peak":2.3,"evening":2.3,"night":1.4}}},{"type":"Feature","geometry":{"type":"Point","coordinates":[-79.463123,43.673628]},"properties":{"stop_id":"4508","stop_name":"Old Weston Rd at St Clair Ave West","stop_lat":43.673628,"stop_lon":-79.463123,"routes":[{"route_id":"127","route_short_name":"127","route_long_name":"Davenport"},{"route_id":"168","route_short_name":"168","route_long_name":"Symington"}],"frequency":{"early_morning":6,"am_peak":7.5,"midday":7,"pm_peak":7,"evening":6,"night":3.1}}},{"type":"Feature","geometry":{"type":"Point","coordinates":[-79.425454,43.661821]},"properties":{"stop_id":"8008","stop_name":"Ossington Ave at Bloor St West","stop_lat":43.661821,"stop_lon":-79.425454,"routes":[{"route_id":"363","route_short_name":"363","route_long_name":"Ossington"}],"frequency":{"early_morning":1,"am_peak":0,"midday":0,"pm_peak":0,"evening":0,"night":1}}},{"type":"Feature","geometry":{"type":"Point","coordinates":[-79.425772,43.662062]},"properties":{"stop_id":"9857","stop_name":"Ossington Ave at Bloor St West","stop_lat":43.662062,"stop_lon":-79.425772,"routes":[{"route_id":"363","route_short_name":"363","route_long_name":"Ossington"}],"frequency":{"early_morning":1,"am_peak":0,"midday":0,"pm_peak":0,"evening":0,"night":0.9}}},{"type":"Feature","geometry":{"type":"Point","coordinates":[-79.35223,43.702452]},"properties":{"stop_id":"2979","stop_name":"Overlea Blvd at Millwood Rd East Side","stop_lat":43.702452,"stop_lon":-79.35223,"routes":[{"route_id":"100","route_short_name":"100","route_long_name":"Flemingdon Park"},{"route_id":"156","route_short_name":"156","route_long_name":"Millwood"},{"route_id":"25","route_short_name":"25","route_long_name":"Don Mills"},{"route_id":"325","route_short_name":"325","route_long_name":"Don Mills"},{"route_id":"72","route_short_name":"72","route_long_name":"Pape"},{"route_id":"88","route_short_name":"88","route_long_name":"South Leaside"}],"frequency":{"early_morning":25.5,"am_peak":35,"midday":25.7,"pm_peak":31.8,"evening":23.7,"night":11.1}}},{"type":"Feature","geometry":{"type":"Point","coordinates":[-79.344028,43.70725]},"properties":{"stop_id":"8011","stop_name":"Overlea Blvd at Thorncliffe Park Dr (East)","stop_lat":43.70725,"stop_lon":-79.344028,"routes":[{"route_id":"100","route_short_name":"100","route_long_name":"Flemingdon Park"},{"route_id":"25","route_short_name":"25","route_long_name":"Don Mills"},{"route_id":"925","route_short_name":"925","route_long_name":"Don Mills Express"}],"frequency":{"early_morning":16.5,"am_peak":26.5,"midday":19.8,"pm_peak":25,"evening":19.3,"night":6.6}}},{"type":"Feature","geometry":{"type":"Point","coordinates":[-79.345139,43.679891]},"properties":{"stop_id":"11846","stop_name":"Pape Ave at Lipton Ave North Side","stop_lat":43.679891,"stop_lon":-79.345139,"routes":[{"route_id":"325","route_short_name":"325","route_long_name":"Don Mills"},{"route_id":"72","route_short_name":"72","route_long_name":"Pape"}],"frequency":{"early_morning":5.5,"am_peak":8,"midday":7,"pm_peak":8.3,"evening":6.7,"night":4.3}}},{"type":"Feature","geometry":{"type":"Point","coordinates":[-79.350372,43.693657]},"properties":{"stop_id":"4501","stop_name":"Pape Ave at O'Connor Dr North Side","stop_lat":43.693657,"stop_lon":-79.350372,"routes":[{"route_id":"100","route_short_name":"100","route_long_name":"Flemingdon Park"},{"route_id":"25","route_short_name":"25","route_long_name":"Don Mills"}],"frequency":{"early_morning":12,"am_peak":20.5,"midday":15.2,"pm_peak":19.3,"evening":13.7,"night":6.1}}},{"type":"Feature","geometry":{"type":"Point","coordinates":[-79.36772,43.663906]},