{"type":"FeatureCollection","features":[{"type":"Feature","geometry":{"type":"Point","coordinates":[-79.415692,43.780147]},"properties":{"stop_id":"14111","stop_name":"Finch Station - Southbound Platform","stop_lat":43.780147,"stop_lon":-79.415692,"routes":[{"route_id":"1","route_short_name":"1","route_long_name":"Line 1 (Yonge-University)"}],"frequency":{"early_morning":12,"am_peak":24,"midday":16.3,"pm_peak":20,"evening":18.7,"night":5.7}}},{"type":"Feature","geometry":{"type":"Point","coordinates":[-79.412492,43.767347]},"properties":{"stop_id":"13789","stop_name":"North York Centre Station - Southbound Platform","stop_lat":43.767347,"stop_lon":-79.412492,"routes":[{"route_id":"1","route_short_name":"1","route_long_name":"Line 1 (Yonge-University)"}],"frequency":{"early_morning":11.5,"am_peak":24,"midday":16.3,"pm_peak":20,"evening":18.7,"night":5.9}}},{"type":"Feature","geometry":{"type":"Point","coordinates":[-79.410691,43.760348]},"properties":{"stop_id":"13860","stop_name":"Sheppard-Yonge Station - Southbound Platform","stop_lat":43.760348,"stop_lon":-79.410691,"routes":[{"route_id":"1","route_short_name":"1","route_long_name":"Line 1 (Yonge-University)"}],"frequency":{"early_morning":11,"am_peak":24,"midday":16.5,"pm_peak":19.8,"evening":19,"night":5.9}}},{"type":"Feature","geometry":{"type":"Point","coordinates":[-79.405991,43.743248]},"properties":{"stop_id":"13792","stop_name":"York Mills Station - Southbound Platform","stop_lat":43.743248,"stop_lon":-79.405991,"routes":[{"route_id":"1","route_short_name":"1","route_long_name":"Line 1 (Yonge-University)"}],"frequency":{"early_morning":10.5,"am_peak":24,"midday":16.5,"pm_peak":19.8,"evening":19,"night":6}}},{"type":"Feature","geometry":{"type":"Point","coordinates":[-79.40229,43.725348]},"properties":{"stop_id":"13793","stop_name":"Lawrence Station - Southbound Platform","stop_lat":43.725348,"stop_lon":-79.40229,"routes":[{"route_id":"1","route_short_name":"1","route_long_name":"Line 1 (Yonge-University)"}],"frequency":{"early_morning":10,"am_peak":24,"midday":16.5,"pm_peak":19.8,"evening":19.3,"night":6}}},{"type":"Feature","geometry":{"type":"Point","coordinates":[-79.39889,43.704648]},"properties":{"stop_id":"13795","stop_name":"Eglinton Station - Southbound Platform","stop_lat":43.704648,"stop_lon":-79.39889,"routes":[{"route_id":"1","route_short_name":"1","route_long_name":"Line 1 (Yonge-University)"}],"frequency":{"early_morning":9,"am_peak":24,"midday":16.8,"pm_peak":19.3,"evening":19.7,"night":6.1}}},{"type":"Feature","geometry":{"type":"Point","coordinates":[-79.39689,43.697048]},"properties":{"stop_id":"13798","stop_name":"Davisville Station - Southbound Platform","stop_lat":43.697048,"stop_lon":-79.39689,"routes":[{"route_id":"1","route_short_name":"1","route_long_name":"Line 1 (Yonge-University)"}],"frequency":{"early_morning":9,"am_peak":24,"midday":16.7,"pm_peak":19.5,"evening":19.3,"night":6.3}}},{"type":"Feature","geometry":{"type":"Point","coordinates":[-79.393089,43.687449]},"properties":{"stop_id":"13799","stop_name":"St Clair Station - Southbound Platform","stop_lat":43.687449,"stop_lon":-79.393089,"routes":[{"route_id":"1","route_short_name":"1","route_long_name":"Line 1 (Yonge-University)"}],"frequency":{"early_morning":8.5,"am_peak":24,"midday":16.7,"pm_peak":21,"evening":19.3,"night":6.4}}},{"type":"Feature","geometry":{"type":"Point","coordinates":[-79.390789,43.682049]},"properties":{"stop_id":"13802","stop_name":"Summerhill Station - Southbound Platform","stop_lat":43.682049,"stop_lon":-79.390789,"routes":[{"route_id":"1","route_short_name":"1","route_long_name":"Line 1 (Yonge-University)"}],"frequency":{"early_morning":8,"am_peak":24,"midday":16.8,"pm_peak":20.8,"evening":19.7,"night":6.4}}},{"type":"Feature","geometry":{"type":"Point","coordinates":[-79.388089,43.676049]},"properties":{"stop_id":"13803","stop_name":"Rosedale Station - Southbound Platform","stop_lat":43.676049,"stop_lon":-79.388089,"routes":[{"route_id":"1","route_short_name":"1","route_long_name":"Line 1 (Yonge-University)"}],"frequency":{"early_morning":7.5,"am_peak":24,"midday":17,"pm_peak":20.5,"evening":20,"night":6.4}}},{"type":"Feature","geometry":{"type":"Point","coordinates":[-79.385389,43.670049]},"properties":{"stop_id":"13864","stop_name":"Bloor Station - Southbound Platform","stop_lat":43.670049,"stop_lon":-79.385389,"routes":[{"route_id":"1","route_short_name":"1","route_long_name":"Line 1 (Yonge-University)"}],"frequency":{"early_morning":7.5,"am_peak":24,"midday":16.8,"pm_peak":20.8,"evening":19.7,"night":6.6}}},{"type":"Feature","geometry":{"type":"Point","coordinates":[-79.383488,43.664949]},"properties":{"stop_id":"13806","stop_name":"Wellesley Station - Southbound Platform","stop_lat":43.664949,"stop_lon":-79.383488,"routes":[{"route_id":"1","route_short_name":"1","route_long_name":"Line 1 (Yonge-University)"}],"frequency":{"early_morning":7,"am_peak":24,"midday":17,"pm_peak":20.5,"evening":20,"night":6.6}}},{"type":"Feature","geometry":{"type":"Point","coordinates":[-79.382688,43.660149]},"properties":{"stop_id":"13807","stop_name":"College Station - Southbound Platform","stop_lat":43.660149,"stop_lon":-79.382688,"routes":[{"route_id":"1","route_short_name":"1","route_long_name":"Line 1 (Yonge-University)"}],"frequency":{"early_morning":7,"am_peak":24,"midday":17,"pm_peak":20.5,"evening":19.7,"night":6.7}}},{"type":"Feature","geometry":{"type":"Point","coordinates":[-79.380788,43.655949]},"properties":{"stop_id":"13810","stop_name":"TMU Station - Southbound Platform","stop_lat":43.655949,"stop_lon":-79.380788,"routes":[{"route_id":"1","route_short_name":"1","route_long_name":"Line 1 (Yonge-University)"}],"frequency":{"early_morning":7,"am_peak":23.5,"midday":17,"pm_peak":20.5,"evening":20,"night":6.7}}},{"type":"Feature","geometry":{"type":"Point","coordinates":[-79.379188,43.652149]},"properties":{"stop_id":"13811","stop_name":"Queen Station - Southbound Platform","stop_lat":43.652149,"stop_lon":-79.379188,"routes":[{"route_id":"1","route_short_name":"1","route_long_name":"Line 1 (Yonge-University)"}],"frequency":{"early_morning":7,"am_peak":23.5,"midday":17,"pm_peak":20.5,"evening":20,"night":6.7}}},{"type":"Feature","geometry":{"type":"Point","coordinates":[-79.377688,43.648449]},"properties":{"stop_id":"13814","stop_name":"King Station - Southbound Platform","stop_lat":43.648449,"stop_lon":-79.377688,"routes":[{"route_id":"1","route_short_name":"1","route_long_name":"Line 1 (Yonge-University)"}],"frequency":{"early_morning":6.5,"am_peak":23.5,"midday":17.2,"pm_peak":20.3,"evening":20,"night":6.9}}},{"type":"Feature","geometry":{"type":"Point","coordinates":[-79.381488,43.645549]},"properties":{"stop_id":"13815","stop_name":"Union Station - Northbound Platform Towards Vaughan Metropolitan Centre","stop_lat":43.645549,"stop_lon":-79.381488,"routes":[{"route_id":"1","route_short_name":"1","route_long_name":"Line 1 (Yonge-University)"}],"frequency":{"early_morning":6.5,"am_peak":23.5,"midday":17,"pm_peak":20.5,"evening":20,"night":6.9}}},{"type":"Feature","geometry":{"type":"Point","coordinates":[-79.385088,43.648249]},"properties":{"stop_id":"13817","stop_name":"St Andrew Station - Northbound Platform","stop_lat":43.648249,"stop_lon":-79.385088,"routes":[{"route_id":"1","route_short_name":"1","route_long_name":"Line 1 (Yonge-University)"}],"frequency":{"early_morning":6.5,"am_peak":23,"midday":17.2,"pm_peak":20.3,"evening":20,"night":7}}},{"type":"Feature","geometry":{"type":"Point","coordinates":[-79.386888,43.651749]},"properties":{"stop_id":"13820","stop_name":"Osgoode Station - Northbound Platform","stop_lat":43.651749,"stop_lon":-79.386888,"routes":[{"route_id":"1","route_short_name":"1","route_long_name":"Line 1 (Yonge-University)"}],"frequency":{"early_morning":6,"am_peak":23,"midday":17.3,"pm_peak":20,"evening":20.3,"night":7}}},{"type":"Feature","geometry":{"type":"Point","coordinates":[-79.388388,43.655249]},"properties":{"stop_id":"13821","stop_name":"St Patrick Station - Northbound Platform","stop_lat":43.655249,"stop_lon":-79.388388,"routes":[{"route_id":"1","route_short_name":"1","route_long_name":"Line 1 (Yonge-University)"}],"frequency":{"early_morning":6,"am_peak":23,"midday":17.2,"pm_peak":20.3,"evening":20.3,"night":7}}},{"type":"Feature","geometry":{"type":"Point","coordinates":[-79.390689,43.660549]},"properties":{"stop_id":"13824","stop_name":"Queen's Park Station - Northbound Platform","stop_lat":43.660549,"stop_lon":-79.390689,"routes":[{"route_id":"1","route_short_name":"1","route_long_name":"Line 1 (Yonge-University)"}],"frequency":{"early_morning":6,"am_peak":22.5,"midday":17.3,"pm_peak":20,"evening":20.3,"night":7.1}}},{"type":"Feature","geometry":{"type":"Point","coordinates":[-79.393389,43.667249]},"properties":{"stop_id":"13825","stop_name":"Museum Station - Northbound Platform","stop_lat":43.667249,"stop_lon":-79.393389,"routes":[{"route_id":"1","route_short_name":"1","route_long_name":"Line 1 (Yonge-University)"}],"frequency":{"early_morning":5.5,"am_peak":22.5,"midday":17.3,"pm_peak":20,"evening":20.7,"night":7.1}}},{"type":"Feature","geometry":{"type":"Point","coordinates":[-79.399689,43.668249]},"properties":{"stop_id":"13858","stop_name":"St George Station - Northbound Platform","stop_lat":43.668249,"stop_lon":-79.399689,"routes":[{"route_id":"1","route_short_name":"1","route_long_name":"Line 1 (Yonge-University)"}],"frequency":{"early_morning":5.5,"am_peak":22.5,"midday":17.3,"pm_peak":20,"evening":20.3,"night":7.3}}},{"type":"Feature","geometry":{"type":"Point","coordinates":[-79.405189,43.670249]},"properties":{"stop_id":"13853","stop_name":"Spadina Station - Northbound Platform","stop_lat":43.670249,"stop_lon":-79.405189,"routes":[{"route_id":"1","route_short_name":"1","route_long_name":"Line 1 (Yonge-University)"}],"frequency":{"early_morning":5.5,"am_peak":22,"midday":17.5,"pm_peak":19.8,"evening":20.7,"night":7.3}}},{"type":"Feature","geometry":{"type":"Point","coordinates":[-79.40709,43.674949]},"properties":{"stop_id":"13828","stop_name":"Dupont Station - Northbound Platform","stop_lat":43.674949,"stop_lon":-79.40709,"routes":[{"route_id":"1","route_short_name":"1","route_long_name":"Line 1 (Yonge-University)"}],"frequency":{"early_morning":5,"am_peak":22.5,"midday":17.3,"pm_peak":20,"evening":20.3,"night":7.4}}},{"type":"Feature","geometry":{"type":"Point","coordinates":[-79.41589,43.685148]},"properties":{"stop_id":"13829","stop_name":"St Clair West Station - Northbound Platform","stop_lat":43.685148,"stop_lon":-79.41589,"routes":[{"route_id":"1","route_short_name":"1","route_long_name":"Line 1 (Yonge-University)"}],"frequency":{"early_morning":5,"am_peak":22,"midday":17.3,"pm_peak":20,"evening":20.7,"night":7.4}}},{"type":"Feature","geometry":{"type":"Point","coordinates":[-79.436691,43.700648]},"properties":{"stop_id":"13832","stop_name":"Cedarvale Station - Northbound Platform","stop_lat":43.700648,"stop_lon":-79.436691,"routes":[{"route_id":"1","route_short_name":"1","route_long_name":"Line 1 (Yonge-University)"}],"frequency":{"early_morning":4.5,"am_peak":21.5,"midday":17.5,"pm_peak":19.8,"evening":20.7,"night":7.7}}},{"type":"Feature","geometry":{"type":"Point","coordinates":[-79.440892,43.709148]},"properties":{"stop_id":"13833","stop_name":"Glencairn Station - Northbound Platform","stop_lat":43.709148,"stop_lon":-79.440892,"routes":[{"route_id":"1","route_short_name":"1","route_long_name":"Line 1 (Yonge-University)"}],"frequency":{"early_morning":4,"am_peak":21.5,"midday":17.7,"pm_peak":19.5,"evening":21,"night":7.7}}},{"type":"Feature","geometry":{"type":"Point","coordinates":[-79.444038,43.715784]},"properties":{"stop_id":"13836","stop_name":"Lawrence West Station - Northbound Platform","stop_lat":43.715784,"stop_lon":-79.444038,"routes":[{"route_id":"1","route_short_name":"1","route_long_name":"Line 1 (Yonge-University)"}],"frequency":{"early_morning":4,"am_peak":21,"midday":17.7,"pm_peak":19.5,"evening":21,"night":7.9}}},{"type":"Feature","geometry":{"type":"Point","coordinates":[-79.447692,43.725248]},"properties":{"stop_id":"13837","stop_name":"Yorkdale Station - Northbound Platform","stop_lat":43.725248,"stop_lon":-79.447692,"routes":[{"route_id":"1","route_short_name":"1","route_long_name":"Line 1 (Yonge-University)"}],"frequency":{"early_morning":4,"am_peak":21,"midday":17.7,"pm_peak":19.5,"evening":21,"night":7.9}}},{"type":"Feature","geometry":{"type":"Point","coordinates":[-79.450192,43.735048]},"properties":{"stop_id":"13840","stop_name":"Wilson Station - Northbound Platform","stop_lat":43.735048,"stop_lon":-79.450192,"routes":[{"route_id":"1","route_short_name":"1","route_long_name":"Line 1 (Yonge-University)"}],"frequency":{"early_morning":3.5,"am_peak":21,"midday":17.7,"pm_peak":19.5,"evening":21,"night":8}}},{"type":"Feature","geometry":{"type":"Point","coordinates":[-79.462781,43.750204]},"properties":{"stop_id":"14945","stop_name":"Sheppard West Station - Northbound Platform","stop_lat":43.750204,"stop_lon":-79.462781,"routes":[{"route_id":"1","route_short_name":"1","route_long_name":"Line 1 (Yonge-University)"}],"frequency":{"early_morning":8.5,"am_peak":20.5,"midday":17.8,"pm_peak":19.3,"evening":21,"night":8.1}}},{"type":"Feature","geometry":{"type":"Point","coordinates":[-79.461993,43.749147]},"properties":{"stop_id":"14110","stop_name":"Sheppard West Station - Southbound Platform","stop_lat":43.749147,"stop_lon":-79.461993,"routes":[{"route_id":"1","route_short_name":"1","route_long_name":"Line 1 (Yonge-University)"}],"frequency":{"early_morning":7,"am_peak":17.5,"midday":15.8,"pm_peak":18,"evening":15.7,"night":6.1}}},{"type":"Feature","geometry":{"type":"Point","coordinates":[-79.449892,43.733848]},"properties":{"stop_id":"13839","stop_name":"Wilson Station - Southbound Platform","stop_lat":43.733848,"stop_lon":-79.449892,"routes":[{"route_id":"1","route_short_name":"1","route_long_name":"Line 1 (Yonge-University)"}],"frequency":{"early_morning":13,"am_peak":24,"midday":15.8,"pm_peak":22.3,"evening":15.7,"night":5.7}}},{"type":"Feature","geometry":{"type":"Point","coordinates":[-79.447292,43.723948]},"properties":{"stop_id":"13838","stop_name":"Yorkdale Station - Southbound Platform","stop_lat":43.723948,"stop_lon":-79.447292,"routes":[{"route_id":"1","route_short_name":"1","route_long_name":"Line 1 (Yonge-University)"}],"frequency":{"early_morning":12.5,"am_peak":24,"midday":16,"pm_peak":22,"evening":15.7,"night":5.9}}},{"type":"Feature","geometry":{"type":"Point","coordinates":[-79.443791,43.714748]},"properties":{"stop_id":"13835","stop_name":"Lawrence West Station - Southbound Platform","stop_lat":43.714748,"stop_lon":-79.443791,"routes":[{"route_id":"1","route_short_name":"1","route_long_name":"Line 1 (Yonge-University)"}],"frequency":{"early_morning":12,"am_peak":24,"midday":16,"pm_peak":22,"evening":16,"night":5.9}}},{"type":"Feature","geometry":{"type":"Point","coordinates":[-79.440191,43.708048]},"properties":{"stop_id":"13834","stop_name":"Glencairn Station - Southbound Platform","stop_lat":43.708048,"stop_lon":-79.440191,"routes":[{"route_id":"1","route_short_name":"1","route_long_name":"Line 1 (Yonge-University)"}],"frequency":{"early_morning":12,"am_peak":24,"midday":16,"pm_peak":22,"evening":16,"night":5.9}}},{"type":"Feature","geometry":{"type":"Point","coordinates":[-79.436291,43.699348]},"properties":{"stop_id":"13831","stop_name":"Cedarvale Station - Southbound Platform","stop_lat":43.699348,"stop_lon":-79.436291,"routes":[{"route_id":"1","route_short_name":"1","route_long_name":"Line 1 (Yonge-University)"}],"frequency":{"early_morning":11.5,"am_peak":24,"midday":16.2,"pm_peak":21.8,"evening":16,"night":6}}},{"type":"Feature","geometry":{"type":"Point","coordinates":[-79.41539,43.683948]},"properties":{"stop_id":"13830","stop_name":"St Clair West Station - Southbound Platform","stop_lat":43.683948,"stop_lon":-79.41539,"routes":[{"route_id":"1","route_short_name":"1","route_long_name":"Line 1 (Yonge-University)"}],"frequency":{"early_morning":11,"am_peak":24,"midday":16.3,"pm_peak":21.5,"evening":16.7,"night":6}}},{"type":"Feature","geometry":{"type":"Point","coordinates":[-79.406689,43.673749]},"properties":{"stop_id":"13827","stop_name":"Dupont Station - Southbound Platform","stop_lat":43.673749,"stop_lon":-79.406689,"routes":[{"route_id":"1","route_short_name":"1","route_long_name":"Line 1 (Yonge-University)"}],"frequency":{"early_morning":10.5,"am_peak":24,"midday":16.3,"pm_peak":21.5,"evening":16.7,"night":6.1}}},{"type":"Feature","geometry":{"type":"Point","coordinates":[-79.404789,43.669049]},"properties":{"stop_id":"13854","stop_name":"Spadina Station - Southbound Platform","stop_lat":43.669049,"stop_lon":-79.404789,"routes":[{"route_id":"1","route_short_name":"1","route_long_name":"Line 1 (Yonge-University)"}],"frequency":{"early_morning":10.5,"am_peak":24,"midday":16.2,"pm_peak":21.8,"evening":16.7,"night":6.1}}},{"type":"Feature","geometry":{"type":"Point","coordinates":[-79.397889,43.668549]},"properties":{"stop_id":"13857","stop_name":"St George Station - Southbound Platform","stop_lat":43.668549,"stop_lon":-79.397889,"routes":[{"route_id":"1","route_short_name":"1","route_long_name":"Line 1 (Yonge-University)"}],"frequency":{"early_morning":11.5,"am_peak":24,"midday":16.3,"pm_peak":21.5,"evening":16.7,"night":6.3}}},{"type":"Feature","geometry":{"type":"Point","coordinates":[-79.392989,43.665949]},"properties":{"stop_id":"13826","stop_name":"Museum Station - Southbound Platform","stop_lat":43.665949,"stop_lon":-79.392989,"routes":[{"route_id":"1","route_short_name":"1","route_long_name":"Line 1 (Yonge-University)"}],"frequency":{"early_morning":11,"am_peak":24,"midday":16.5,"pm_peak":21.3,"evening":17,"night":6.3}}},{"type":"Feature","geometry":{"type":"Point","coordinates":[-79.390289,43.659249]},"properties":{"stop_id":"13823","stop_name":"Queen's Park Station - Southbound Platform","stop_lat":43.659249,"stop_lon":-79.390289,"routes":[{"route_id":"1","route_short_name":"1","route_long_name":"Line 1 (Yonge-University)"}],"frequency":{"early_morning":11,"am_peak":24,"midday":16.3,"pm_peak":21.5,"evening":17,"night":6.3}}},{"type":"Feature","geometry":{"type":"Point","coordinates":[-79.387988,43.654049]},"properties":{"stop_id":"13822","stop_name":"St Patrick Station - Southbound Platform","stop_lat":43.654049,"stop_lon":-79.387988,"routes":[{"route_id":"1","route_short_name":"1","route_long_name":"Line 1 (Yonge-University)"}],"frequency":{"early_morning":10.5,"am_peak":24,"midday":16.5,"pm_peak":21.3,"evening":17,"night":6.4}}},{"type":"Feature","geometry":{"type":"Point","coordinates":[-79.386488,43.650449]},"properties":{"stop_id":"13819","stop_name":"Osgoode Station - Southbound Platform","stop_lat":43.650449,"stop_lon":-79.386488,"routes":[{"route_id":"1","route_short_name":"1","route_long_name":"Line 1 (Yonge-University)"}],"frequency":{"early_morning":10.5,"am_peak":24,"midday":16.3,"pm_peak":21.5,"evening":17,"night":6.4}}},{"type":"Feature","geometry":{"type":"Point","coordinates":[-79.384488,43.647049]},"properties":{"stop_id":"13818","stop_name":"St Andrew Station - Southbound Platform","stop_lat":43.647049,"stop_lon":-79.384488,"routes":[{"route_id":"1","route_short_name":"1","route_long_name":"Line 1 (Yonge-University)"}],"frequency":{"early_morning":10,"am_peak":24,"midday":16.5,"pm_peak":21.3,"evening":17.3,"night":6.4}}},{"type":"Feature","geometry":{"type":"Point","coordinates":[-79.379688,43.645849]},"properties":{"stop_id":"13816","stop_name":"Union Station - Northbound Platform Towards Finch","stop_lat":43.645849,"stop_lon":-79.379688,"routes":[{"route_id":"1","route_short_name":"1","route_long_name":"Line 1 (Yonge-University)"}],"frequency":{"early_morning":10.5,"am_peak":24,"midday":16.7,"pm_peak":21,"evening":17.7,"night":6.4}}},{"type":"Feature","geometry":{"type":"Point","coordinates":[-79.378088,43.649649]},"properties":{"stop_id":"13813","stop_name":"King Station - Northbound Platform","stop_lat":43.649649,"stop_lon":-79.378088,"routes":[{"route_id":"1","route_short_name":"1","route_long_name":"Line 1 (Yonge-University)"}],"frequency":{"early_morning":10.5,"am_peak":24,"midday":16.5,"pm_peak":21.3,"evening":17.3,"night":6.6}}},{"type":"Feature","geometry":{"type":"Point","coordinates":[-79.379588,43.653349]},"properties":{"stop_id":"13812","stop_name":"Queen Station - Northbound Platform","stop_lat":43.653349,"stop_lon":-79.379588,"routes":[{"route_id":"1","route_short_name":"1","route_long_name":"Line 1 (Yonge-University)"}],"frequency":{"early_morning":10,"am_peak":24,"midday":16.7,"pm_peak":21,"evening":17.7,"night":6.6}}},{"type":"Feature","geometry":{"type":"Point","coordinates":[-79.381188,43.657149]},"properties":{"stop_id":"13809","stop_name":"TMU Station - Northbound Platform","stop_lat":43.657149,"stop_lon":-79.381188,"routes":[{"route_id":"1","route_short_name":"1","route_long_name":"Line 1 (Yonge-University)"}],"frequency":{"early_morning":10,"am_peak":24,"midday":16.7,"pm_peak":21,"evening":17.7,"night":6.6}}},{"type":"Feature","geometry":{"type":"Point","coordinates":[-79.383088,43.661449]},"properties":{"stop_id":"13808","stop_name":"College Station - Northbound Platform","stop_lat":43.661449,"stop_lon":-79.383088,"routes":[{"route_id":"1","route_short_name":"1","route_long_name":"Line 1 (Yonge-University)"}],"frequency":{"early_morning":9.5,"am_peak":24,"midday":16.7,"pm_peak":21,"evening":17.7,"night":6.7}}},{"type":"Feature","geometry":{"type":"Point","coordinates":[-79.383788,43.666149]},"properties":{"stop_id":"13805","stop_name":"Wellesley Station - Northbound Platform","stop_lat":43.666149,"stop_lon":-79.383788,"routes":[{"route_id":"1","route_short_name":"1","route_long_name":"Line 1 (Yonge-University)"}],"frequency":{"early_morning":9.5,"am_peak":24,"midday":16.7,"pm_peak":21,"evening":17.7,"night":6.7}}},{"type":"Feature","geometry":{"type":"Point","coordinates":[-79.385918,43.671044]},"properties":{"stop_id":"13863","stop_name":"Bloor Station - Northbound Platform","stop_lat":43.671044,"stop_lon":-79.385918,"routes":[{"route_id":"1","route_short_name":"1","route_long_name":"Line 1 (Yonge-University)"}],"frequency":{"early_morning":9.5,"am_peak":24,"midday":16.7,"pm_peak":21,"evening":18,"night":6.7}}},{"type":"Feature","geometry":{"type":"Point","coordinates":[-79.388589,43.677249]},"properties":{"stop_id":"13804","stop_name":"Rosedale Station - Northbound Platform","stop_lat":43.677249,"stop_lon":-79.388589,"routes":[{"route_id":"1","route_short_name":"1","route_long_name":"Line 1 (Yonge-University)"}],"frequency":{"early_morning":9,"am_peak":24,"midday":16.8,"pm_peak":20.8,"evening":18.3,"night":6.7}}},{"type":"Feature","geometry":{"type":"Point","coordinates":[-79.391189,43.683349]},"properties":{"stop_id":"13801","stop_name":"Summerhill Station - Northbound Platform","stop_lat":43.683349,"stop_lon":-79.391189,"routes":[{"route_id":"1","route_short_name":"1","route_long_name":"Line 1 (Yonge-University)"}],"frequency":{"early_morning":9,"am_peak":24,"midday":16.8,"pm_peak":20.8,"evening":18,"night":6.9}}},{"type":"Feature","geometry":{"type":"Point","coordinates":[-79.393489,43.688649]},"properties":{"stop_id":"13800","stop_name":"St Clair Station - Northbound Platform","stop_lat":43.688649,"stop_lon":-79.393489,"routes":[{"route_id":"1","route_short_name":"1","route_long_name":"Line 1 (Yonge-University)"}],"frequency":{"early_morning":8.5,"am_peak":24,"midday":16.8,"pm_peak":20.8,"evening":18.3,"night":6.9}}},{"type":"Feature","geometry":{"type":"Point","coordinates":[-79.39729,43.698248]},"properties":{"stop_id":"13797","stop_name":"Davisville Station - Northbound Platform","stop_lat":43.698248,"stop_lon":-79.39729,"routes":[{"route_id":"1","route_short_name":"1","route_long_name":"Line 1 (Yonge-University)"}],"frequency":{"early_morning":8,"am_peak":24,"midday":17,"pm_peak":20.5,"evening":18.7,"night":6.9}}},{"type":"Feature","geometry":{"type":"Point","coordinates":[-79.39839,43.706548]},"properties":{"stop_id":"13796","stop_name":"Eglinton Station - Northbound Platform","stop_lat":43.706548,"stop_lon":-79.39839,"routes":[{"route_id":"1","route_short_name":"1","route_long_name":"Line 1 (Yonge-University)"}],"frequency":{"early_morning":12.5,"am_peak":24,"midday":16.8,"pm_peak":20.8,"evening":18.3,"night":7}}},{"type":"Feature","geometry":{"type":"Point","coordinates":[-79.40249,43.726548]},"properties":{"stop_id":"13794","stop_name":"Lawrence Station - Northbound Platform","stop_lat":43.726548,"stop_lon":-79.40249,"routes":[{"route_id":"1","route_short_name":"1","route_long_name":"Line 1 (Yonge-University)"}],"frequency":{"early_morning":11.5,"am_peak":24,"midday":17.2,"pm_peak":20.3,"evening":19,"night":7}}},{"type":"Feature","geometry":{"type":"Point","coordinates":[-79.406191,43.744448]},"properties":{"stop_id":"13791","stop_name":"York Mills Station - Northbound Platform","stop_lat":43.744448,"stop_lon":-79.406191,"routes":[{"route_id":"1","route_short_name":"1","route_long_name":"Line 1 (Yonge-University)"}],"frequency":{"early_morning":11.5,"am_peak":24,"midday":17.2,"pm_peak":20.3,"evening":19,"night":7.1}}},{"type":"Feature","geometry":{"type":"Point","coordinates":[-79.410891,43.761648]},"properties":{"stop_id":"13859","stop_name":"Sheppard-Yonge Station - Northbound Platform","stop_lat":43.761648,"stop_lon":-79.410891,"routes":[{"route_id":"1","route_short_name":"1","route_long_name":"Line 1 (Yonge-University)"}],"frequency":{"early_morning":11,"am_peak":24,"midday":17.2,"pm_peak":20.3,"evening":19.3,"night":7.1}}},{"type":"Feature","geometry":{"type":"Point","coordinates":[-79.412592,43.768547]},"properties":{"stop_id":"13790","stop_name":"North York Centre Station - Northbound Platform","stop_lat":43.768547,"stop_lon":-79.412592,"routes":[{"route_id":"1","route_short_name":"1","route_long_name":"Line 1 (Yonge-University)"}],"frequency":{"early_morning":11,"am_peak":23.5,"midday":17.3,"pm_peak":20,"evening":19.3,"night":7.3}}},{"type":"Feature","geometry":{"type":"Point","coordinates":[-79.415291,43.780847]},"properties":{"stop_id":"14944","stop_name":"Finch Station - Subway Platform","stop_lat":43.780847,"stop_lon":-79.415291,"routes":[{"route_id":"1","route_short_name":"1","route_long_name":"Line 1 (Yonge-University)"}],"frequency":{"early_morning":10,"am_peak":24,"midday":17.3,"pm_peak":20,"evening":19.7,"night":7.3}}},{"type":"Feature","geometry":{"type":"Point","coordinates":[-79.535694,43.637648]},"properties":{"stop_id":"13785","stop_name":"Kipling Station - Eastbound Platform","stop_lat":43.637648,"stop_lon":-79.535694,"routes":[{"route_id":"2","route_short_name":"2","route_long_name":"Line 2 (Bloor - Danforth)"}],"frequency":{"early_morning":9,"am_peak":25.5,"midday":19.2,"pm_peak":23.3,"evening":16,"night":6.3}}},{"type":"Feature","geometry":{"type":"Point","coordinates":[-79.523293,43.645548]},"properties":{"stop_id":"13784","stop_name":"Islington Station - Eastbound Platform","stop_lat":43.645548,"stop_lon":-79.523293,"routes":[{"route_id":"2","route_short_name":"2","route_long_name":"Line 2 (Bloor - Danforth)"}],"frequency":{"early_morning":8.5,"am_peak":25.5,"midday":19.2,"pm_peak":23.3,"evening":16.3,"night":6.3}}},{"type":"Feature","geometry":{"type":"Point","coordinates":[-79.508693,43.648548]},"properties":{"stop_id":"13781","stop_name":"Royal York Station - Eastbound Platform","stop_lat":43.648548,"stop_lon":-79.508693,"routes":[{"route_id":"2","route_short_name":"2","route_long_name":"Line 2 (Bloor - Danforth)"}],"frequency":{"early_morning":8,"am_peak":25.5,"midday":19.2,"pm_peak":23.5,"evening":16,"night":6.4}}},{"type":"Feature","geometry":{"type":"Point","coordinates":[-79.493392,43.649448]},"properties":{"stop_id":"13780","stop_name":"Old Mill Station - Eastbound Platform","stop_lat":43.649448,"stop_lon":-79.493392,"routes":[{"route_id":"2","route_short_name":"2","route_long_name":"Line 2 (Bloor - Danforth)"}],"frequency":{"early_morning":7.5,"am_peak":25.5,"midday":19.3,"pm_peak":23.3,"evening":16.3,"night":6.4}}},{"type":"Feature","geometry":{"type":"Point","coordinates":[-79.482892,43.650149]},"properties":{"stop_id":"13777","stop_name":"Jane Station - Eastbound Platform","stop_lat":43.650149,"stop_lon":-79.482892,"routes":[{"route_id":"2","route_short_name":"2","route_long_name":"Line 2 (Bloor - Danforth)"}],"frequency":{"early_morning":7.5,"am_peak":25.5,"midday":19.2,"pm_peak":23.5,"evening":16.3,"night":6.4}}},{"type":"Feature","geometry":{"type":"Point","coordinates":[-79.474992,43.652049]},"properties":{"stop_id":"13776","stop_name":"Runnymede Station - Eastbound Platform","stop_lat":43.652049,"stop_lon":-79.474992,"routes":[{"route_id":"2","route_short_name":"2","route_long_name":"Line 2 (Bloor - Danforth)"}],"frequency":{"early_morning":7.5,"am_peak":25,"midday":19.3,"pm_peak":23.5,"evening":16,"night":6.6}}},{"type":"Feature","geometry":{"type":"Point","coordinates":[-79.466991,43.653849]},"properties":{"stop_id":"13773","stop_name":"High Park Station - Eastbound Platform","stop_lat":43.653849,"stop_lon":-79.466991,"routes":[{"route_id":"2","route_short_name":"2","route_long_name":"Line 2 (Bloor - Danforth)"}],"frequency":{"early_morning":7,"am_peak":25,"midday":19.3,"pm_peak":23.5,"evening":16.3,"night":6.6}}},{"type":"Feature","geometry":{"type":"Point","coordinates":[-79.458691,43.655649]},"properties":{"stop_id":"13772","stop_name":"Keele Station - Eastbound Platform","stop_lat":43.655649,"stop_lon":-79.458691,"routes":[{"route_id":"2","route_short_name":"2","route_long_name":"Line 2 (Bloor - Danforth)"}],"frequency":{"early_morning":7,"am_peak":25,"midday":19.3,"pm_peak":23.5,"evening":16.3,"night":6.6}}},{"type":"Feature","geometry":{"type":"Point","coordinates":[-79.451091,43.657449]},"properties":{"stop_id":"13769","stop_name":"Dundas West Station - Eastbound Platform","stop_lat":43.657449,"stop_lon":-79.451091,"routes":[{"route_id":"2","route_short_name":"2","route_long_name":"Line 2 (Bloor - Danforth)"}],"frequency":{"early_morning":7,"am_peak":24.5,"midday":19.3,"pm_peak":23.5,"evening":16.3,"night":6.7}}},{"type":"Feature","geometry":{"type":"Point","coordinates":[-79.442463,43.659246]},"properties":{"stop_id":"13768","stop_name":"Lansdowne Station - Eastbound Platform","stop_lat":43.659246,"stop_lon":-79.442463,"routes":[{"route_id":"2","route_short_name":"2","route_long_name":"Line 2 (Bloor - Danforth)"}],"frequency":{"early_morning":6.5,"am_peak":24.5,"midday":19.5,"pm_peak":23.5,"evening":16.3,"night":6.7}}},{"type":"Feature","geometry":{"type":"Point","coordinates":[-79.43389,43.660849]},"properties":{"stop_id":"13765","stop_name":"Dufferin Station - Eastbound Platform","stop_lat":43.660849,"stop_lon":-79.43389,"routes":[{"route_id":"2","route_short_name":"2","route_long_name":"Line 2 (Bloor - Danforth)"}],"frequency":{"early_morning":6.5,"am_peak":24.5,"midday":19.5,"pm_peak":23.3,"evening":16.7,"night":6.7}}},{"type":"Feature","geometry":{"type":"Point","coordinates":[-79.42609,43.662349]},"properties":{"stop_id":"13764","stop_name":"Ossington Station - Eastbound Platform","stop_lat":43.662349,"stop_lon":-79.42609,"routes":[{"route_id":"2","route_short_name":"2","route_long_name":"Line 2 (Bloor - Danforth)"}],"frequency":{"early_morning":6.5,"am_peak":24,"midday":19.5,"pm_peak":23.5,"evening":16.3,"night":6.9}}},{"type":"Feature","geometry":{"type":"Point","coordinates":[-79.41729,43.664449]},"properties":{"stop_id":"13761","stop_name":"Christie Station - Eastbound Platform","stop_lat":43.664449,"stop_lon":-79.41729,"routes":[{"route_id":"2","route_short_name":"2","route_long_name":"Line 2 (Bloor - Danforth)"}],"frequency":{"early_morning":6,"am_peak":24,"midday":19.7,"pm_peak":23.3,"evening":16.7,"night":6.9}}},{"type":"Feature","geometry":{"type":"Point","coordinates":[-79.410589,43.665949]},"properties":{"stop_id":"13760","stop_name":"Bathurst Station - Eastbound Platform","stop_lat":43.665949,"stop_lon":-79.410589,"routes":[{"route_id":"2","route_short_name":"2","route_long_name":"Line 2 (Bloor - Danforth)"}],"frequency":{"early_morning":6,"am_peak":24,"midday":19.5,"pm_peak":23.3,"evening":16.7,"night":7}}},{"type":"Feature","geometry":{"type":"Point","coordinates":[-79.403889,43.667249]},"properties":{"stop_id":"13852","stop_name":"Spadina Station - Eastbound Platform","stop_lat":43.667249,"stop_lon":-79.403889,"routes":[{"route_id":"2","route_short_name":"2","route_long_name":"Line 2 (Bloor - Danforth)"}],"frequency":{"early_morning":6,"am_peak":23.5,"midday":19.7,"pm_peak":23.3,"evening":16.7,"night":7}}},{"type":"Feature","geometry":{"type":"Point","coordinates":[-79.397989,43.668549]},"properties":{"stop_id":"13856","stop_name":"St George Station - Eastbound Platform","stop_lat":43.668549,"stop_lon":-79.397989,"routes":[{"route_id":"2","route_short_name":"2","route_long_name":"Line 2 (Bloor - Danforth)"}],"frequency":{"early_morning":5.5,"am_peak":24,"midday":19.5,"pm_peak":23.3,"evening":17,"night":7}}},{"type":"Feature","geometry":{"type":"Point","coordinates":[-79.390089,43.670149]},"properties":{"stop_id":"13757","stop_name":"Bay Station - Eastbound Platform","stop_lat":43.670149,"stop_lon":-79.390089,"routes":[{"route_id":"2","route_short_name":"2","route_long_name":"Line 2 (Bloor - Danforth)"}],"frequency":{"early_morning":5.5,"am_peak":23.5,"midday":19.7,"pm_peak":23.3,"evening":16.7,"night":7.1}}},{"type":"Feature","geometry":{"type":"Point","coordinates":[-79.385956,43.670997]},"properties":{"stop_id":"13756","stop_name":"Yonge Station - Eastbound Platform","stop_lat":43.670997,"stop_lon":-79.385956,"routes":[{"route_id":"2","route_short_name":"2","route_long_name":"Line 2 (Bloor - Danforth)"}],"frequency":{"early_morning":5.5,"am_peak":23,"midday":19.7,"pm_peak":23.3,"evening":17,"night":7.1}}},{"type":"Feature","geometry":{"type":"Point","coordinates":[-79.376162,43.672103]},"properties":{"stop_id":"13753","stop_name":"Sherbourne Station - Eastbound Platform","stop_lat":43.672103,"stop_lon":-79.376162,"routes":[{"route_id":"2","route_short_name":"2","route_long_name":"Line 2 (Bloor - Danforth)"}],"frequency":{"early_morning":5,"am_peak":23,"midday":19.8,"pm_peak":23,"evening":17,"night":7.3}}},{"type":"Feature","geometry":{"type":"Point","coordinates":[-79.368088,43.674049]},"properties":{"stop_id":"13752","stop_name":"Castle Frank Station - Eastbound Platform","stop_lat":43.674049,"stop_lon":-79.368088,"routes":[{"route_id":"2","route_short_name":"2","route_long_name":"Line 2 (Bloor - Danforth)"}],"frequency":{"early_morning":5,"am_peak":23,"midday":19.7,"pm_peak":23.3,"evening":17,"night":7.3}}},{"type":"Feature","geometry":{"type":"Point","coordinates":[-79.358088,43.677049]},"properties":{"stop_id":"13749","stop_name":"Broadview Station - Eastbound Platform","stop_lat":43.677049,"stop_lon":-79.358088,"routes":[{"route_id":"2","route_short_name":"2","route_long_name":"Line 2 (Bloor - Danforth)"}],"frequency":{"early_morning":5,"am_peak":22.5,"midday":19.8,"pm_peak":23,"evening":17,"night":7.4}}},{"type":"Feature","geometry":{"type":"Point","coordinates":[-79.352502,43.678241]},"properties":{"stop_id":"13748","stop_name":"Chester Station - Eastbound Platform","stop_lat":43.678241,"stop_lon":-79.352502,"routes":[{"route_id":"2","route_short_name":"2","route_long_name":"Line 2 (Bloor - Danforth)"}],"frequency":{"early_morning":5,"am_peak":22.5,"midday":19.7,"pm_peak":23.3,"evening":17,"night":7.4}}},{"type":"Feature","geometry":{"type":"Point","coordinates":[-79.344087,43.679949]},"properties":{"stop_id":"13746","stop_name":"Pape Station - Eastbound Platform","stop_lat":43.679949,"stop_lon":-79.344087,"routes":[{"route_id":"2","route_short_name":"2","route_long_name":"Line 2 (Bloor - Danforth)"}],"frequency":{"early_morning":4.5,"am_peak":22.5,"midday":19.8,"pm_peak":23,"evening":17.3,"night":7.4}}},{"type":"Feature","geometry":{"type":"Point","coordinates":[-79.337487,43.681149]},"properties":{"stop_id":"13743","stop_name":"Donlands Station - Eastbound Platform","stop_lat":43.681149,"stop_lon":-79.337487,"routes":[{"route_id":"2","route_short_name":"2","route_long_name":"Line 2 (Bloor - Danforth)"}],"frequency":{"early_morning":4.5,"am_peak":22,"midday":20,"pm_peak":22.8,"evening":17.3,"night":7.6}}},{"type":"Feature","geometry":{"type":"Point","coordinates":[-79.331687,43.682549]},"properties":{"stop_id":"13742","stop_name":"Greenwood Station - Eastbound Platform","stop_lat":43.682549,"stop_lon":-79.331687,"routes":[{"route_id":"2","route_short_name":"2","route_long_name":"Line 2 (Bloor - Danforth)"}],"frequency":{"early_morning":12,"am_peak":25,"midday":18,"pm_peak":23,"evening":17.3,"night":7.6}}},{"type":"Feature","geometry":{"type":"Point","coordinates":[-79.321986,43.684549]},"properties":{"stop_id":"13739","stop_name":"Coxwell Station - Eastbound Platform","stop_lat":43.684549,"stop_lon":-79.321986,"routes":[{"route_id":"2","route_short_name":"2","route_long_name":"Line 2 (Bloor - Danforth)"}],"frequency":{"early_morning":11.5,"am_peak":25.5,"midday":18,"pm_peak":23,"evening":17.3,"night":7.6}}},{"type":"Feature","geometry":{"type":"Point","coordinates":[-79.312286,43.686649]},"properties":{"stop_id":"13738","stop_name":"Woodbine Station - Eastbound Platform","stop_lat":43.686649,"stop_lon":-79.312286,"routes":[{"route_id":"2","route_short_name":"2","route_long_name":"Line 2 (Bloor - Danforth)"}],"frequency":{"early_morning":11.5,"am_peak":25,"midday":18,"pm_peak":23,"evening":17.3,"night":7.7}}},{"type":"Feature","geometry":{"type":"Point","coordinates":[-79.300686,43.689249]},"properties":{"stop_id":"13735","stop_name":"Main Street Station - Eastbound Platform","stop_lat":43.689249,"stop_lon":-79.300686,"routes":[{"route_id":"2","route_short_name":"2","route_long_name":"Line 2 (Bloor - Danforth)"}],"frequency":{"early_morning":11,"am_peak":25.5,"midday":18,"pm_peak":22.8,"evening":17.7,"night":7.7}}},{"type":"Feature","geometry":{"type":"Point","coordinates":[-79.287885,43.695149]},"properties":{"stop_id":"13734","stop_name":"Victoria Park Station - Eastbound Platform","stop_lat":43.695149,"stop_lon":-79.287885,"routes":[{"route_id":"2","route_short_name":"2","route_long_name":"Line 2 (Bloor - Danforth)"}],"frequency":{"early_morning":10.5,"am_peak":25.5,"midday":18,"pm_peak":22.8,"evening":17.7,"night":7.9}}},{"type":"Feature","geometry":{"type":"Point","coordinates":[-79.278785,43.712149]},"properties":{"stop_id":"13732","stop_name":"Warden Station - Eastbound Platform","stop_lat":43.712149,"stop_lon":-79.278785,"routes":[{"route_id":"2","route_short_name":"2","route_long_name":"Line 2 (Bloor - Danforth)"}],"frequency":{"early_morning":10,"am_peak":25.5,"midday":18,"pm_peak":22.8,"evening":17.7,"night":8}}},{"type":"Feature","geometry":{"type":"Point","coordinates":[-79.263718,43.732487]},"properties":{"stop_id":"14947","stop_name":"Kennedy Station - Subway Platform","stop_lat":43.732487,"stop_lon":-79.263718,"routes":[{"route_id":"2","route_short_name":"2","route_long_name":"Line 2 (Bloor - Danforth)"}],"frequency":{"early_morning":9,"am_peak":25.5,"midday":18.2,"pm_peak":22.5,"evening":18,"night":8.1}}},{"type":"Feature","geometry":{"type":"Point","coordinates":[-79.264785,43.732149]},"properties":{"stop_id":"13865","stop_name":"Kennedy Station - Westbound Platform","stop_lat":43.732149,"stop_lon":-79.264785,"routes":[{"route_id":"2","route_short_name":"2","route_long_name":"Line 2 (Bloor - Danforth)"}],"frequency":{"early_morning":11,"am_peak":25.5,"midday":18,"pm_peak":20.8,"evening":14.3,"night":6.3}}},{"type":"Feature","geometry":{"type":"Point","coordinates":[-79.279085,43.710949]},"properties":{"stop_id":"13731","stop_name":"Warden Station - Westbound Platform","stop_lat":43.710949,"stop_lon":-79.279085,"routes":[{"route_id":"2","route_short_name":"2","route_long_name":"Line 2 (Bloor - Danforth)"}],"frequency":{"early_morning":10,"am_peak":25.5,"midday":18.2,"pm_peak":20.8,"evening":14.3,"night":6.4}}},{"type":"Feature","geometry":{"type":"Point","coordinates":[-79.289485,43.694649]},"properties":{"stop_id":"13733","stop_name":"Victoria Park Station - Westbound Platform","stop_lat":43.694649,"stop_lon":-79.289485,"routes":[{"route_id":"2","route_short_name":"2","route_long_name":"Line 2 (Bloor - Danforth)"}],"frequency":{"early_morning":9.5,"am_peak":25.5,"midday":18.2,"pm_peak":20.8,"evening":14.7,"night":6.4}}},{"type":"Feature","geometry":{"type":"Point","coordinates":[-79.302386,43.688949]},"properties":{"stop_id":"13736","stop_name":"Main Street Station - Westbound Platform","stop_lat":43.688949,"stop_lon":-79.302386,"routes":[{"route_id":"2","route_short_name":"2","route_long_name":"Line 2 (Bloor - Danforth)"}],"frequency":{"early_morning":9,"am_peak":25.5,"midday":18.3,"pm_peak":20.5,"evening":14.7,"night":6.6}}},{"type":"Feature","geometry":{"type":"Point","coordinates":[-79.313986,43.686349]},"properties":{"stop_id":"13737","stop_name":"Woodbine Station - Westbound Platform","stop_lat":43.686349,"stop_lon":-79.313986,"routes":[{"route_id":"2","route_short_name":"2","route_long_name":"Line 2 (Bloor - Danforth)"}],"frequency":{"early_morning":8.5,"am_peak":25.5,"midday":18.3,"pm_peak":20.8,"evening":14.7,"night":6.6}}},{"type":"Feature","geometry":{"type":"Point","coordinates":[-79.323686,43.684249]},"properties":{"stop_id":"13740","stop_name":"Coxwell Station - Westbound Platform","stop_lat":43.684249,"stop_lon":-79.323686,"routes":[{"route_id":"2","route_short_name":"2","route_long_name":"Line 2 (Bloor - Danforth)"}],"frequency":{"early_morning":8.5,"am_peak":25.5,"midday":18.3,"pm_peak":20.8,"evening":14.7,"night":6.6}}},{"type":"Feature","geometry":{"type":"Point","coordinates":[-79.329987,43.682849]},"properties":{"stop_id":"13741","stop_name":"Greenwood Station - Westbound Platform","stop_lat":43.682849,"stop_lon":-79.329987,"routes":[{"route_id":"2","route_short_name":"2","route_long_name":"Line 2 (Bloor - Danforth)"}],"frequency":{"early_morning":8,"am_peak":25.5,"midday":18.3,"pm_peak":20.8,"evening":15,"night":6.6}}},{"type":"Feature","geometry":{"type":"Point","coordinates":[-79.339187,43.680949]},"properties":{"stop_id":"13744","stop_name":"Donlands Station - Westbound Platform","stop_lat":43.680949,"stop_lon":-79.339187,"routes":[{"route_id":"2","route_short_name":"2","route_long_name":"Line 2 (Bloor - Danforth)"}],"frequency":{"early_morning":12.5,"am_peak":25.5,"midday":18.8,"pm_peak":22.3,"evening":15,"night":6.6}}},{"type":"Feature","geometry":{"type":"Point","coordinates":[-79.345787,43.679649]},"properties":{"stop_id":"13745","stop_name":"Pape Station - Westbound Platform","stop_lat":43.679649,"stop_lon":-79.345787,"routes":[{"route_id":"2","route_short_name":"2","route_long_name":"Line 2 (Bloor - Danforth)"}],"frequency":{"early_morning":12,"am_peak":25.5,"midday":18.8,"pm_peak":22.5,"evening":14.7,"night":6.7}}},{"type":"Feature","geometry":{"type":"Point","coordinates":[-79.352537,43.678351]},"properties":{"stop_id":"13747","stop_name":"Chester Station - Westbound Platform","stop_lat":43.678351,"stop_lon":-79.352537,"routes":[{"route_id":"2","route_short_name":"2","route_long_name":"Line 2 (Bloor - Danforth)"}],"frequency":{"early_morning":11.5,"am_peak":25.5,"midday":19,"pm_peak":22.3,"evening":15,"night":6.7}}},{"type":"Feature","geometry":{"type":"Point","coordinates":[-79.359588,43.676349]},"properties":{"stop_id":"13750","stop_name":"Broadview Station - Westbound Platform","stop_lat":43.676349,"stop_lon":-79.359588,"routes":[{"route_id":"2","route_short_name":"2","route_long_name":"Line 2 (Bloor - Danforth)"}],"frequency":{"early_morning":11.5,"am_peak":25.5,"midday":18.8,"pm_peak":22.5,"evening":15,"night":6.7}}},{"type":"Feature","geometry":{"type":"Point","coordinates":[-79.369788,43.673549]},"properties":{"stop_id":"13751","stop_name":"Castle Frank Station - Westbound Platform","stop_lat":43.673549,"stop_lon":-79.369788,"routes":[{"route_id":"2","route_short_name":"2","route_long_name":"Line 2 (Bloor - Danforth)"}],"frequency":{"early_morning":11,"am_peak":26,"midday":18.8,"pm_peak":22.5,"evening":15,"night":6.7}}},{"type":"Feature","geometry":{"type":"Point","coordinates":[-79.376173,43.672174]},"properties":{"stop_id":"13754","stop_name":"Sherbourne Station - Westbound Platform","stop_lat":43.672174,"stop_lon":-79.376173,"routes":[{"route_id":"2","route_short_name":"2","route_long_name":"Line 2 (Bloor - Danforth)"}],"frequency":{"early_morning":11,"am_peak":25.5,"midday":19,"pm_peak":22.5,"evening":14.7,"night":6.9}}},{"type":"Feature","geometry":{"type":"Point","coordinates":[-79.386789,43.671049]},"properties":{"stop_id":"13755","stop_name":"Yonge Station - Westbound Platform","stop_lat":43.671049,"stop_lon":-79.386789,"routes":[{"route_id":"2","route_short_name":"2","route_long_name":"Line 2 (Bloor - Danforth)"}],"frequency":{"early_morning":10.5,"am_peak":25.5,"midday":19,"pm_peak":22.8,"evening":15,"night":6.9}}},{"type":"Feature","geometry":{"type":"Point","coordinates":[-79.391789,43.669849]},"properties":{"stop_id":"13758","stop_name":"Bay Station - Westbound Platform","stop_lat":43.669849,"stop_lon":-79.391789,"routes":[{"route_id":"2","route_short_name":"2","route_long_name":"Line 2 (Bloor - Danforth)"}],"frequency":{"early_morning":10.5,"am_peak":25.5,"midday":19,"pm_peak":22.5,"evening":15.3,"night":6.9}}},{"type":"Feature","geometry":{"type":"Point","coordinates":[-79.399689,43.668249]},"properties":{"stop_id":"13855","stop_name":"St George Station - Westbound Platform","stop_lat":43.668249,"stop_lon":-79.399689,"routes":[{"route_id":"2","route_short_name":"2","route_long_name":"Line 2 (Bloor - Danforth)"}],"frequency":{"early_morning":10.5,"am_peak":25.5,"midday":19,"pm_peak":22.8,"evening":15,"night":7}}},{"type":"Feature","geometry":{"type":"Point","coordinates":[-79.405689,43.666949]},"properties":{"stop_id":"13851","stop_name":"Spadina Station - Westbound Platform","stop_lat":43.666949,"stop_lon":-79.405689,"routes":[{"route_id":"2","route_short_name":"2","route_long_name":"Line 2 (Bloor - Danforth)"}],"frequency":{"early_morning":10.5,"am_peak":25.5,"midday":19,"pm_peak":22.8,"evening":15,"night":7}}},{"type":"Feature","geometry":{"type":"Point","coordinates":[-79.41229,43.665649]},"properties":{"stop_id":"13759","stop_name":"Bathurst Station - Westbound Platform","stop_lat":43.665649,"stop_lon":-79.41229,"routes":[{"route_id":"2","route_short_name":"2","route_long_name":"Line 2 (Bloor - Danforth)"}],"frequency":{"early_morning":10,"am_peak":25.5,"midday":19,"pm_peak":22.8,"evening":15.3,"night":7}}},{"type":"Feature","geometry":{"type":"Point","coordinates":[-79.41899,43.664149]},"properties":{"stop_id":"13762","stop_name":"Christie Station - Westbound Platform","stop_lat":43.664149,"stop_lon":-79.41899,"routes":[{"route_id":"2","route_short_name":"2","route_long_name":"Line 2 (Bloor - Danforth)"}],"frequency":{"early_morning":10,"am_peak":25.5,"midday":19,"pm_peak":23,"evening":15.3,"night":7}}},{"type":"Feature","geometry":{"type":"Point","coordinates":[-79.42789,43.662049]},"properties":{"stop_id":"13763","stop_name":"Ossington Station - Westbound Platform","stop_lat":43.662049,"stop_lon":-79.42789,"routes":[{"route_id":"2","route_short_name":"2","route_long_name":"Line 2 (Bloor - Danforth)"}],"frequency":{"early_morning":10,"am_peak":25.5,"midday":19,"pm_peak":22.8,"evening":15.3,"night":7.1}}},{"type":"Feature","geometry":{"type":"Point","coordinates":[-79.43569,43.660549]},"properties":{"stop_id":"13766","stop_name":"Dufferin Station - Westbound Platform","stop_lat":43.660549,"stop_lon":-79.43569,"routes":[{"route_id":"2","route_short_name":"2","route_long_name":"Line 2 (Bloor - Danforth)"}],"frequency":{"early_morning":9.5,"am_peak":25.5,"midday":19,"pm_peak":23,"evening":15.3,"night":7.1}}},{"type":"Feature","geometry":{"type":"Point","coordinates":[-79.442471,43.659314]},"properties":{"stop_id":"13767","stop_name":"Lansdowne Station - Westbound Platform","stop_lat":43.659314,"stop_lon":-79.442471,"routes":[{"route_id":"2","route_short_name":"2","route_long_name":"Line 2 (Bloor - Danforth)"}],"frequency":{"early_morning":9.5,"am_peak":25.5,"midday":19,"pm_peak":23,"evening":15.3,"night":7.1}}},{"type":"Feature","geometry":{"type":"Point","coordinates":[-79.452791,43.657149]},"properties":{"stop_id":"13770","stop_name":"Dundas West Station - Westbound Platform","stop_lat":43.657149,"stop_lon":-79.452791,"routes":[{"route_id":"2","route_short_name":"2","route_long_name":"Line 2 (Bloor - Danforth)"}],"frequency":{"early_morning":9,"am_peak":25.5,"midday":19,"pm_peak":23,"evening":15.7,"night":7.1}}},{"type":"Feature","geometry":{"type":"Point","coordinates":[-79.460391,43.655349]},"properties":{"stop_id":"13771","stop_name":"Keele Station - Westbound Platform","stop_lat":43.655349,"stop_lon":-79.460391,"routes":[{"route_id":"2","route_short_name":"2","route_long_name":"Line 2 (Bloor - Danforth)"}],"frequency":{"early_morning":10.5,"am_peak":25.5,"midday":19,"pm_peak":23.3,"evening":15.3,"night":7.3}}},{"type":"Feature","geometry":{"type":"Point","coordinates":[-79.468691,43.653549]},"properties":{"stop_id":"13774","stop_name":"High Park Station - Westbound Platform","stop_lat":43.653549,"stop_lon":-79.468691,"routes":[{"route_id":"2","route_short_name":"2","route_long_name":"Line 2 (Bloor - Danforth)"}],"frequency":{"early_morning":10.5,"am_peak":25.5,"midday":19,"pm_peak":23,"evening":15.7,"night":7.3}}},{"type":"Feature","geometry":{"type":"Point","coordinates":[-79.476692,43.651749]},"properties":{"stop_id":"13775","stop_name":"Runnymede Station - Westbound Platform","stop_lat":43.651749,"stop_lon":-79.476692,"routes":[{"route_id":"2","route_short_name":"2","route_long_name":"Line 2 (Bloor - Danforth)"}],"frequency":{"early_morning":10,"am_peak":25.5,"midday":19,"pm_peak":23.3,"evening":15.7,"night":7.3}}},{"type":"Feature","geometry":{"type":"Point","coordinates":[-79.484592,43.649749]},"properties":{"stop_id":"13778","stop_name":"Jane Station - Westbound Platform","stop_lat":43.649749,"stop_lon":-79.484592,"routes":[{"route_id":"2","route_short_name":"2","route_long_name":"Line 2 (Bloor - Danforth)"}],"frequency":{"early_morning":10,"am_peak":25.5,"midday":19,"pm_peak":23.3,"evening":15.7,"night":7.3}}},{"type":"Feature","geometry":{"type":"Point","coordinates":[-79.494892,43.650048]},"properties":{"stop_id":"13779","stop_name":"Old Mill Station - Westbound Platform","stop_lat":43.650048,"stop_lon":-79.494892,"routes":[{"route_id":"2","route_short_name":"2","route_long_name":"Line 2 (Bloor - Danforth)"}],"frequency":{"early_morning":9.5,"am_peak":25.5,"midday":19,"pm_peak":23.3,"evening":15.7,"night":7.4}}},{"type":"Feature","geometry":{"type":"Point","coordinates":[-79.510493,43.648348]},"properties":{"stop_id":"13782","stop_name":"Royal York Station - Westbound Platform","stop_lat":43.648348,"stop_lon":-79.510493,"routes":[{"route_id":"2","route_short_name":"2","route_long_name":"Line 2 (Bloor - Danforth)"}],"frequency":{"early_morning":9,"am_peak":25.5,"midday":19,"pm_peak":23.5,"evening":15.7,"night":7.4}}},{"type":"Feature","geometry":{"type":"Point","coordinates":[-79.524994,43.645248]},"properties":{"stop_id":"13783","stop_name":"Islington Station - Westbound Platform","stop_lat":43.645248,"stop_lon":-79.524994,"routes":[{"route_id":"2","route_short_name":"2","route_long_name":"Line 2 (Bloor - Danforth)"}],"frequency":{"early_morning":8.5,"am_peak":25.5,"midday":19.2,"pm_peak":23.3,"evening":15.7,"night":7.6}}},{"type":"Feature","geometry":{"type":"Point","coordinates":[-79.535892,43.637392]},"properties":{"stop_id":"14948","stop_name":"Kipling Station - Subway Platform","stop_lat":43.637392,"stop_lon":-79.535892,"routes":[{"route_id":"2","route_short_name":"2","route_long_name":"Line 2 (Bloor - Danforth)"}],"frequency":{"early_morning":8,"am_peak":25.5,"midday":19.2,"pm_peak":23.3,"evening":16,"night":7.6}}},{"type":"Feature","geometry":{"type":"Point","coordinates":[-79.410394,43.761494]},"properties":{"stop_id":"13862","stop_name":"Sheppard-Yonge Station - Eastbound Platform","stop_lat":43.761494,"stop_lon":-79.410394,"routes":[{"route_id":"4","route_short_name":"4","route_long_name":"Line 4 (Sheppard)"}],"frequency":{"early_morning":7.5,"am_peak":11,"midday":10.8,"pm_peak":11,"evening":10.7,"night":6.7}}},{"type":"Feature","geometry":{"type":"Point","coordinates":[-79.386703,43.766872]},"properties":{"stop_id":"13844","stop_name":"Bayview Station - Eastbound Platform","stop_lat":43.766872,"stop_lon":-79.386703,"routes":[{"route_id":"4","route_short_name":"4","route_long_name":"Line 4 (Sheppard)"}],"frequency":{"early_morning":7.5,"am_peak":11,"midday":11,"pm_peak":10.8,"evening":11,"night":6.7}}},{"type":"Feature","geometry":{"type":"Point","coordinates":[-79.376312,43.769202]},"properties":{"stop_id":"13845","stop_name":"Bessarion Station - Eastbound Platform","stop_lat":43.769202,"stop_lon":-79.376312,"routes":[{"route_id":"4","route_short_name":"4","route_long_name":"Line 4 (Sheppard)"}],"frequency":{"early_morning":8,"am_peak":11,"midday":10.8,"pm_peak":11,"evening":11,"night":6.7}}},{"type":"Feature","geometry":{"type":"Point","coordinates":[-79.36499,43.771348]},"properties":{"stop_id":"13848","stop_name":"Leslie Station - Eastbound Platform","stop_lat":43.771348,"stop_lon":-79.36499,"routes":[{"route_id":"4","route_short_name":"4","route_long_name":"Line 4 (Sheppard)"}],"frequency":{"early_morning":8.5,"am_peak":11,"midday":10.8,"pm_peak":11,"evening":10.7,"night":6.9}}},{"type":"Feature","geometry":{"type":"Point","coordinates":[-79.346584,43.775547]},"properties":{"stop_id":"14949","stop_name":"Don Mills Station - Subway Platform","stop_lat":43.775547,"stop_lon":-79.346584,"routes":[{"route_id":"4","route_short_name":"4","route_long_name":"Line 4 (Sheppard)"}],"frequency":{"early_morning":8,"am_peak":11,"midday":11,"pm_peak":10.8,"evening":11,"night":6.9}}},{"type":"Feature","geometry":{"type":"Point","coordinates":[-79.346189,43.775248]},"properties":{"stop_id":"14109","stop_name":"Don Mills Station - Westbound Platform","stop_lat":43.775248,"stop_lon":-79.346189,"routes":[{"route_id":"4","route_short_name":"4","route_long_name":"Line 4 (Sheppard)"}],"frequency":{"early_morning":8.5,"am_peak":10.5,"midday":11,"pm_peak":11,"evening":10.7,"night":7}}},{"type":"Feature","geometry":{"type":"Point","coordinates":[-79.36679,43.771248]},"properties":{"stop_id":"13847","stop_name":"Leslie Station - Westbound Platform","stop_lat":43.771248,"stop_lon":-79.36679,"routes":[{"route_id":"4","route_short_name":"4","route_long_name":"Line 4 (Sheppard)"}],"frequency":{"early_morning":8,"am_peak":11,"midday":11,"pm_peak":10.8,"evening":11,"night":7}}},{"type":"Feature","geometry":{"type":"Point","coordinates":[-79.376345,43.769296]},"properties":{"stop_id":"13846","stop_name":"Bessarion Station - Westbound Platform","stop_lat":43.769296,"stop_lon":-79.376345,"routes":[{"route_id":"4","route_short_name":"4","route_long_name":"Line 4 (Sheppard)"}],"frequency":{"early_morning":8,"am_peak":11,"midday":10.8,"pm_peak":11,"evening":11,"night":7}}},{"type":"Feature","geometry":{"type":"Point","coordinates":[-79.38673,43.766951]},"properties":{"stop_id":"13843","stop_name":"Bayview Station - Westbound Platform","stop_lat":43.766951,"stop_lon":-79.38673,"routes":[{"route_id":"4","route_short_name":"4","route_long_name":"Line 4 (Sheppard)"}],"frequency":{"early_morning":8,"am_peak":10.5,"midday":11,"pm_peak":11,"evening":10.7,"night":7.1}}},{"type":"Feature","geometry":{"type":"Point","coordinates":[-79.410091,43.761648]},"properties":{"stop_id":"13861","stop_name":"Sheppard-Yonge Station - Subway Platform","stop_lat":43.761648,"stop_lon":-79.410091,"routes":[{"route_id":"4","route_short_name":"4","route_long_name":"Line 4 (Sheppard)"}],"frequency":{"early_morning":7.5,"am_peak":11,"midday":10.8,"pm_peak":11,"evening":11,"night":7.1}}},{"type":"Feature","geometry":{"type":"Point","coordinates":[-79.509372,43.77675]},"properties":{"stop_id":"15657","stop_name":"Pioneer Village Station - Southbound Platform","stop_lat":43.77675,"stop_lon":-79.509372,"routes":[{"route_id":"1","route_short_name":"1","route_long_name":"Line 1 (Yonge-University)"}],"frequency":{"early_morning":8,"am_peak":18.5,"midday":15.7,"pm_peak":18,"evening":15,"night":6}}},{"type":"Feature","geometry":{"type":"Point","coordinates":[-79.509334,43.776741]},"properties":{"stop_id":"15656","stop_name":"Pioneer Village Station - Northbound Platform","stop_lat":43.776741,"stop_lon":-79.509334,"routes":[{"route_id":"1","route_short_name":"1","route_long_name":"Line 1 (Yonge-University)"}],"frequency":{"early_morning":7,"am_peak":20,"midday":18,"pm_peak":19,"evening":21.3,"night":8.6}}},{"type":"Feature","geometry":{"type":"Point","coordinates":[-79.499888,43.774097]},"properties":{"stop_id":"15666","stop_name":"York University - Northbound Platform","stop_lat":43.774097,"stop_lon":-79.499888,"routes":[{"route_id":"1","route_short_name":"1","route_long_name":"Line 1 (Yonge-University)"}],"frequency":{"early_morning":7.5,"am_peak":20,"midday":18,"pm_peak":19,"evening":21.3,"night":8.4}}},{"type":"Feature","geometry":{"type":"Point","coordinates":[-79.499888,43.774097]},"properties":{"stop_id":"15667","stop_name":"York University - Southbound Platform","stop_lat":43.774097,"stop_lon":-79.499888,"routes":[{"route_id":"1","route_short_name":"1","route_long_name":"Line 1 (Yonge-University)"}],"frequency":{"early_morning":8,"am_peak":18,"midday":15.7,"pm_peak":18.3,"evening":15,"night":6}}},{"type":"Feature","geometry":{"type":"Point","coordinates":[-79.491118,43.764855]},"properties":{"stop_id":"15659","stop_name":"Finch West Station - Northbound Platform","stop_lat":43.764855,"stop_lon":-79.491118,"routes":[{"route_id":"1","route_short_name":"1","route_long_name":"Line 1 (Yonge-University)"}],"frequency":{"early_morning":7.5,"am_peak":20,"midday":18,"pm_peak":19,"evening":21.7,"night":8.3}}},{"type":"Feature","geometry":{"type":"Point","coordinates":[-79.491118,43.764855]},"properties":{"stop_id":"15658","stop_name":"Finch West Station - Southbound Platform","stop_lat":43.764855,"stop_lon":-79.491118,"routes":[{"route_id":"1","route_short_name":"1","route_long_name":"Line 1 (Yonge-University)"}],"frequency":{"early_morning":8,"am_peak":18,"midday":15.7,"pm_peak":18,"evening":15.3,"night":6}}},{"type":"Feature","geometry":{"type":"Point","coordinates":[-79.478693,43.753311]},"properties":{"stop_id":"15664","stop_name":"Downsview Park Station - Northbound Platform","stop_lat":43.753311,"stop_lon":-79.478693,"routes":[{"route_id":"1","route_short_name":"1","route_long_name":"Line 1 (Yonge-University)"}],"frequency":{"early_morning":8,"am_peak":20.5,"midday":17.8,"pm_peak":19.3,"evening":21,"night":8.3}}},{"type":"Feature","geometry":{"type":"Point","coordinates":[-79.478693,43.753311]},"properties":{"stop_id":"15665","stop_name":"Downsview Park Station - Southbound Platform","stop_lat":43.753311,"stop_lon":-79.478693,"routes":[{"route_id":"1","route_short_name":"1","route_long_name":"Line 1 (Yonge-University)"}],"frequency":{"early_morning":7.5,"am_peak":17.5,"midday":15.8,"pm_peak":18,"evening":15.3,"night":6.1}}},{"type":"Feature","geometry":{"type":"Point","coordinates":[-79.523454,43.783359]},"properties":{"stop_id":"15661","stop_name":"Highway 407 Station - Northbound Platform","stop_lat":43.783359,"stop_lon":-79.523454,"routes":[{"route_id":"1","route_short_name":"1","route_long_name":"Line 1 (Yonge-University)"}],"frequency":{"early_morning":7,"am_peak":19.5,"midday":18.2,"pm_peak":18.8,"evening":21.7,"night":8.6}}},{"type":"Feature","geometry":{"type":"Point","coordinates":[-79.523454,43.783359]},"properties":{"stop_id":"15660","stop_name":"Highway 407 Station - Southbound Platform","stop_lat":43.783359,"stop_lon":-79.523454,"routes":[{"route_id":"1","route_short_name":"1","route_long_name":"Line 1 (Yonge-University)"}],"frequency":{"early_morning":8.5,"am_peak":18.5,"midday":15.5,"pm_peak":18.3,"evening":15,"night":5.9}}},{"type":"Feature","geometry":{"type":"Point","coordinates":[-79.527906,43.794021]},"properties":{"stop_id":"15662","stop_name":"Vaughan Metropolitan Centre Station - Subway Platform","stop_lat":43.794021,"stop_lon":-79.527906,"routes":[{"route_id":"1","route_short_name":"1","route_long_name":"Line 1 (Yonge-University)"}],"frequency":{"early_morning":6.5,"am_peak":19,"midday":18.3,"pm_peak":18.5,"evening":22,"night":8.7}}},{"type":"Feature","geometry":{"type":"Point","coordinates":[-79.527906,43.794021]},"properties":{"stop_id":"15663","stop_name":"Vaughan Metropolitan Centre Station - Southbound Platform","stop_lat":43.794021,"stop_lon":-79.527906,"routes":[{"route_id":"1","route_short_name":"1","route_long_name":"Line 1 (Yonge-University)"}],"frequency":{"early_morning":8.5,"am_peak":19,"midday":15.5,"pm_peak":18.3,"evening":14.7,"night":5.9}}}]}